[
  {
    "id": 1,
    "name": "10 Barrel Brewing Co - Denver",
    "brewery_type": "large",
    "street": "2620 Walnut St",
    "city": "Denver",
    "state": "Colorado",
    "postal_code": 80205,
    "phone": 7205738992,
    "longitude": -104.9853655,
    "latitude": 39.7592508
  },
  {
    "id": 2,
    "name": "105 West Brewing Co",
    "brewery_type": "micro",
    "street": "1043 Park St",
    "city": "Castle Rock",
    "state": "Colorado",
    "postal_code": 80109,
    "website_url": "http://www.105westbrewing.com",
    "phone": 3033257321,
    "longitude": -104.8667206,
    "latitude": 39.38269495
  },
  {
    "id": 3,
    "name": "12Degree Brewing",
    "brewery_type": "brewpub",
    "street": "820 Main St",
    "city": "Louisville",
    "state": "Colorado",
    "postal_code": 80027,
    "website_url": "http://www.12degree.com",
    "phone": 3035791004,
    "longitude": -105.1319826,
    "latitude": 39.9782443
  },
  {
    "id": 4,
    "name": "14er Brewing Company",
    "brewery_type": "proprietor",
    "street": "2801 Walnut St",
    "city": "Denver",
    "state": "Colorado",
    "postal_code": 80205,
    "website_url": "http://www.14erBrewing.com",
    "phone": 7207731437,
    "longitude": -104.9839636,
    "latitude": 39.7614112
  },
  {
    "id": 5,
    "name": "3 Freaks Brewing Co",
    "brewery_type": "micro",
    "street": "7140 E County Line Rd",
    "city": "Highlands Ranch",
    "state": "Colorado",
    "postal_code": 80126,
    "website_url": "http://www.3freaksbrewery.com",
    "phone": 7202990994,
    "longitude": -104.9426656,
    "latitude": 39.5659575
  },
  {
    "id": 6,
    "name": "300 Suns Brewing Company",
    "brewery_type": "brewpub",
    "street": "335 1st Ave Unit C",
    "city": "Longmont",
    "state": "Colorado",
    "postal_code": 80501,
    "website_url": "http://www.300sunsbrewing.com"
  },
  {
    "id": 7,
    "name": "38 State Brewing",
    "brewery_type": "micro",
    "street": "8071 S Broadway Ste A",
    "city": "Littleton",
    "state": "Colorado",
    "postal_code": 80122,
    "website_url": "http://www.38statebrew.com",
    "phone": 7206383678
  },
  {
    "id": 8,
    "name": "4 Noses Brewing Company",
    "brewery_type": "micro",
    "street": "8855 W 116th Cir Ste 3",
    "city": "Broomfield",
    "state": "Colorado",
    "postal_code": 80021,
    "website_url": "http://4nosesbrewing.com",
    "phone": 7204602797
  },
  {
    "id": 9,
    "name": "4B's Brewery",
    "brewery_type": "brewpub",
    "street": "215 W Main St",
    "city": "Cedaredge",
    "state": "Colorado",
    "postal_code": 81413,
    "website_url": "http://www.4bsbrewery.com",
    "phone": 9708567762,
    "longitude": -107.925782,
    "latitude": 38.900614
  },
  {
    "id": 10,
    "name": "7 Hermits Brewing Company",
    "brewery_type": "brewpub",
    "street": "PO Box 3186",
    "city": "Eagle",
    "state": "Colorado",
    "postal_code": 81631,
    "website_url": "http://www.7hermitsbrewing.com",
    "phone": 9704714979
  },
  {
    "id": 11,
    "name": "Acidulous Brewing Company",
    "brewery_type": "contract",
    "street": "6712 S Independence St",
    "city": "Littleton",
    "state": "Colorado",
    "postal_code": 80128,
    "phone": 3039952895,
    "longitude": -105.1059543,
    "latitude": 39.5383949
  },
  {
    "id": 12,
    "name": "Alpine Dog Brewing Co",
    "brewery_type": "micro",
    "street": "1505 N Ogden St",
    "city": "Denver",
    "state": "Colorado",
    "postal_code": 80218,
    "website_url": "http://www.alpinedogbrewery.com",
    "phone": 3038321245
  },
  {
    "id": 13,
    "name": "Alternation Brewing Company",
    "brewery_type": "micro",
    "street": "1539 S Broadway",
    "city": "Denver",
    "state": "Colorado",
    "postal_code": 80210,
    "website_url": "http://www.alternationbrewing.com",
    "phone": 3038025340,
    "longitude": -104.9876117,
    "latitude": 39.68866374
  },
  {
    "id": 14,
    "name": "Amalgam Brewing",
    "brewery_type": "proprietor",
    "street": "6381 Beach St Unit A",
    "city": "Denver",
    "state": "Colorado",
    "postal_code": 80221,
    "website_url": "http://www.amalgambrewing.com"
  },
  {
    "id": 15,
    "name": "Angry James Brewing Co",
    "brewery_type": "micro",
    "street": "421 Adams Ave",
    "city": "Silverthorne",
    "state": "Colorado",
    "postal_code": 80498,
    "website_url": "http://www.angryjamesbrewing.com",
    "phone": 9704558800,
    "longitude": -106.0764637,
    "latitude": 39.63306895
  },
  {
    "id": 16,
    "name": "Anheuser-Busch Inc - Fort Collins",
    "brewery_type": "large",
    "street": "2351 Busch Dr",
    "city": "Fort Collins",
    "state": "Colorado",
    "postal_code": 80524,
    "phone": 9704904500,
    "longitude": -105.0019686,
    "latitude": 40.61817811
  },
  {
    "id": 17,
    "name": "Animas Brewing Co",
    "brewery_type": "brewpub",
    "street": "1560 E 2nd Ave",
    "city": "Durango",
    "state": "Colorado",
    "postal_code": 81301,
    "website_url": "http://www.animasbrewing.com",
    "phone": 9704038850,
    "longitude": -107.8769912,
    "latitude": 37.27997215
  },
  {
    "id": 18,
    "name": "Asher Brewing Co",
    "brewery_type": "micro",
    "street": "4699 Nautilus Ct S Ste 104",
    "city": "Boulder",
    "state": "Colorado",
    "postal_code": 80301,
    "website_url": "http://asherbrewing.com",
    "phone": 3035301381
  },
  {
    "id": 19,
    "name": "Aspen Brewing Company",
    "brewery_type": "micro",
    "street": "404 Aspen Airport Business Ctr",
    "city": "Aspen",
    "state": "Colorado",
    "postal_code": 81611,
    "website_url": "http://www.aspenbrewingcompany.com",
    "phone": 9709202739,
    "longitude": -106.8597747,
    "latitude": 39.22153402
  },
  {
    "id": 20,
    "name": "Atom Brewing Company",
    "brewery_type": "micro",
    "street": "654 Moffat St",
    "city": "Erie",
    "state": "Colorado",
    "postal_code": 80516,
    "website_url": "http://www.atombrewingcompany.com",
    "phone": 8634120917,
    "longitude": -105.0542327,
    "latitude": 40.0488359
  },
  {
    "id": 21,
    "name": "Atrevida Beer Company",
    "brewery_type": "micro",
    "street": "204 Mount View Ln Unit 3",
    "city": "Colorado Springs",
    "state": "Colorado",
    "postal_code": 80908,
    "website_url": "http://www.atrevidabeerco.com",
    "phone": 7192664200
  },
  {
    "id": 22,
    "name": "Avalanche Brewing Co",
    "brewery_type": "brewpub",
    "street": "1067 Blair St",
    "city": "Silverton",
    "state": "Colorado",
    "postal_code": 81433,
    "website_url": "http://www.avalanchebrewing.com",
    "phone": 9703875282,
    "longitude": -107.664791,
    "latitude": 37.8098899
  },
  {
    "id": 23,
    "name": "Avery Brewing Co",
    "brewery_type": "regional",
    "street": "4910 Nautilus Ct N",
    "city": "Boulder",
    "state": "Colorado",
    "postal_code": 80301,
    "longitude": -105.2047652,
    "latitude": 40.0625835
  },
  {
    "id": 24,
    "name": "Baere Brewing Company",
    "brewery_type": "micro",
    "street": "320 Broadway, Unit E",
    "city": "Denver",
    "state": "Colorado",
    "postal_code": 80203,
    "website_url": "http://www.baerebrewing.com",
    "phone": 9709014810
  },
  {
    "id": 25,
    "name": "Banded Oak Brewing Company",
    "brewery_type": "brewpub",
    "street": "470 N Broadway",
    "city": "Denver",
    "state": "Colorado",
    "postal_code": 80203,
    "website_url": "http://Bandedoakbrewing.com",
    "phone": 7204798033,
    "longitude": -104.9874187,
    "latitude": 39.7282897
  },
  {
    "id": 26,
    "name": "Barnett and Son Brewing Company",
    "brewery_type": "micro",
    "street": "18425 Pony Express Dr Unit 125",
    "city": "Parker",
    "state": "Colorado",
    "postal_code": 80134,
    "phone": 7204200462
  },
  {
    "id": 27,
    "name": "Barrel Dog Brewing",
    "brewery_type": "micro",
    "city": "Evergreen",
    "state": "Colorado",
    "postal_code": 80439,
    "phone": 5599176846,
    "longitude": -105.321458,
    "latitude": 39.6361637
  },
  {
    "id": 28,
    "name": "Barrels & Bottles Brewery",
    "brewery_type": "brewpub",
    "street": "600 12th St Ste 160",
    "city": "Golden",
    "state": "Colorado",
    "postal_code": 80401,
    "website_url": "http://www.barrelsbottles.com",
    "phone": 7203283643,
    "longitude": -105.2202098,
    "latitude": 39.7562107
  },
  {
    "id": 29,
    "name": "Beer By Design Brewery",
    "brewery_type": "contract",
    "street": "11490 Jackson St",
    "city": "Thornton",
    "state": "Colorado",
    "postal_code": 80233,
    "website_url": "http://www.beerbydesign.com",
    "phone": 3035172202,
    "longitude": -104.9417886,
    "latitude": 39.9285623
  },
  {
    "id": 30,
    "name": "Berthoud Brewing Company",
    "brewery_type": "micro",
    "street": "450 S 8th St Unit B",
    "city": "Berthoud",
    "state": "Colorado",
    "postal_code": 80513,
    "website_url": "http://www.berthoudbrewing.com",
    "phone": 9705329850
  },
  {
    "id": 31,
    "name": "Beyond The Mountain Brewing Company",
    "brewery_type": "micro",
    "street": "6035 Longbow Dr Unit 109",
    "city": "Boulder",
    "state": "Colorado",
    "postal_code": 80301,
    "website_url": "http://www.btmbrewing.com",
    "phone": 7574072346
  },
  {
    "id": 32,
    "name": "Bierstadt Lagerhaus",
    "brewery_type": "brewpub",
    "street": "2875 Blake St",
    "city": "Denver",
    "state": "Colorado",
    "postal_code": 80205,
    "website_url": "http://www.bierstadtlager.com",
    "phone": 7205707824,
    "longitude": -104.9838084,
    "latitude": 39.7630094
  },
  {
    "id": 33,
    "name": "BierWerks",
    "brewery_type": "brewpub",
    "street": "121 E. Midland Ave",
    "city": "Woodland Park",
    "state": "Colorado",
    "postal_code": 80863,
    "website_url": "http://www.bierwerks.com",
    "phone": 7196868100,
    "longitude": -105.0519462,
    "latitude": 38.9941414
  },
  {
    "id": 34,
    "name": "Big Beaver Brewing Co",
    "brewery_type": "micro",
    "street": "2707 W Eisenhower Blvd Ste 9",
    "city": "Loveland",
    "state": "Colorado",
    "postal_code": 80537,
    "website_url": "http://www.bigbeaverbrew.com",
    "phone": 9708186064
  },
  {
    "id": 35,
    "name": "Big Choice Brewing Co",
    "brewery_type": "micro",
    "street": "21 S 1st Ave",
    "city": "Brighton",
    "state": "Colorado",
    "postal_code": 80601,
    "website_url": "http://www.bigchoicebrewing.com",
    "phone": 3034692616,
    "longitude": -104.822433,
    "latitude": 39.98642943
  },
  {
    "id": 36,
    "name": "Big Thompson Brewery",
    "brewery_type": "micro",
    "street": "114 E 15th St",
    "city": "Loveland",
    "state": "Colorado",
    "postal_code": 80538,
    "longitude": -105.0746687,
    "latitude": 40.40811243
  },
  {
    "id": 37,
    "name": "BJs Restaurant & Brewery - Boulder",
    "brewery_type": "brewpub",
    "street": "1690 28th St",
    "city": "Boulder",
    "state": "Colorado",
    "postal_code": 80301,
    "website_url": "http://www.bjsrestaurants.com",
    "phone": 3034405200,
    "longitude": -105.258512,
    "latitude": 40.0291592
  },
  {
    "id": 38,
    "name": "Black Bottle Brewery",
    "brewery_type": "brewpub",
    "street": "1611 S College Ave Ste STE1609",
    "city": "Fort Collins",
    "state": "Colorado",
    "postal_code": 80525,
    "website_url": "http://www.blackbottlebrewery.com",
    "phone": 9704932337
  },
  {
    "id": 39,
    "name": "Black Forest Brewing Company",
    "brewery_type": "brewpub",
    "street": "11590 Black Forest Rd Ste 50",
    "city": "Colorado Springs",
    "state": "Colorado",
    "postal_code": 80908,
    "website_url": "http://www.blackforestbrewco.com",
    "phone": 7193962011
  },
  {
    "id": 40,
    "name": "Black Project Spontaneous & Wild Ales",
    "brewery_type": "micro",
    "street": "1290 S Broadway",
    "city": "Denver",
    "state": "Colorado",
    "postal_code": 80210,
    "website_url": "http://www.blackprojectbeer.com",
    "phone": 7203342873,
    "longitude": -104.9872018,
    "latitude": 39.6933607
  },
  {
    "id": 41,
    "name": "Black Shirt Brewing Co",
    "brewery_type": "brewpub",
    "street": "3719 Walnut St",
    "city": "Denver",
    "state": "Colorado",
    "postal_code": 80205,
    "website_url": "http://www.blackshirtbrewingco.com",
    "phone": 3039932799,
    "longitude": -104.9729604,
    "latitude": 39.7698142
  },
  {
    "id": 42,
    "name": "Black Sky Brewery",
    "brewery_type": "brewpub",
    "street": "490 Santa Fe Dr",
    "city": "Denver",
    "state": "Colorado",
    "postal_code": 80204,
    "website_url": "http://www.blackskybrewing.com",
    "phone": 9702154536,
    "longitude": -104.9983183,
    "latitude": 39.7239431
  },
  {
    "id": 43,
    "name": "Blue Moon Brewery",
    "brewery_type": "large",
    "street": "3750 Chestnut Pl",
    "city": "Denver",
    "state": "Colorado",
    "postal_code": 80216,
    "longitude": -104.9769417,
    "latitude": 39.7735561
  },
  {
    "id": 44,
    "name": "Blue Spruce Brewing",
    "brewery_type": "brewpub",
    "street": "4151 E County Line Rd Unit G",
    "city": "Centennial",
    "state": "Colorado",
    "postal_code": 80122,
    "website_url": "http://www.bluesprucebrewing.com",
    "phone": 3037710590
  },
  {
    "id": 45,
    "name": "Blue Spruce Brewing Littleton",
    "brewery_type": "brewpub",
    "street": "10577 W Centennial Rd",
    "city": "Littleton",
    "state": "Colorado",
    "postal_code": 80127,
    "website_url": "http://www.bluesprucebrewing.com"
  },
  {
    "id": 46,
    "name": "Boggy Draw Brewery",
    "brewery_type": "micro",
    "street": "3535 S Platte River Dr Ste L",
    "city": "Sheridan",
    "state": "Colorado",
    "postal_code": 80110,
    "website_url": "http://www.boggydrawbrewing.com",
    "phone": 7209400338
  },
  {
    "id": 47,
    "name": "Bonfire Brewing",
    "brewery_type": "micro",
    "street": "127 W 2nd St",
    "city": "Eagle",
    "state": "Colorado",
    "postal_code": 81631,
    "website_url": "http://www.bonfirebrewing.com",
    "phone": 9703067113,
    "longitude": -106.82826,
    "latitude": 39.65531966
  },
  {
    "id": 48,
    "name": "Bonfire Brewing Production",
    "brewery_type": "micro",
    "street": "936 Chambers Ct. B-4",
    "city": "Eagle",
    "state": "Colorado",
    "postal_code": 81631,
    "phone": 9703067113
  },
  {
    "id": 49,
    "name": "Bootstrap Brewing Co",
    "brewery_type": "micro",
    "street": "6778 N 79th St",
    "city": "Niwot",
    "state": "Colorado",
    "postal_code": 80503,
    "website_url": "http://www.bootstrapbrewing.com",
    "phone": 3036524186,
    "longitude": -105.1691581,
    "latitude": 40.09681247
  },
  {
    "id": 50,
    "name": "Bootstrap Brewing",
    "brewery_type": "micro",
    "street": "142 Pratt St",
    "city": "Longmont",
    "state": "Colorado",
    "postal_code": 80501,
    "phone": 3036524186,
    "longitude": -105.1062808,
    "latitude": 40.16140505
  },
  {
    "id": 51,
    "name": "Bottom Shelf Brewery",
    "brewery_type": "brewpub",
    "street": "118 E Mill St",
    "city": "Bayfield",
    "state": "Colorado",
    "postal_code": 81122,
    "website_url": "http://www.bottomshelfbrewing.com",
    "phone": 9708842442,
    "longitude": -107.5990683,
    "latitude": 37.2251348
  },
  {
    "id": 52,
    "name": "Boulder Beer Co",
    "brewery_type": "regional",
    "street": "2880 Wilderness Pl",
    "city": "Boulder",
    "state": "Colorado",
    "postal_code": 80301,
    "longitude": -105.2480158,
    "latitude": 40.026439
  },
  {
    "id": 53,
    "name": "Boulder Beer On Walnut",
    "brewery_type": "brewpub",
    "street": "1123 Walnut St",
    "city": "Boulder",
    "state": "Colorado",
    "postal_code": 80302,
    "phone": 3034471345,
    "longitude": -105.2804375,
    "latitude": 40.0168555
  },
  {
    "id": 54,
    "name": "Brass Brewing Company",
    "brewery_type": "micro",
    "street": "318 E Colorado Ave",
    "city": "Colorado Springs",
    "state": "Colorado",
    "postal_code": 80903,
    "longitude": -104.8189706,
    "latitude": 38.8326073
  },
  {
    "id": 55,
    "name": "Breckenridge Brewery",
    "brewery_type": "large",
    "street": "2920 Brewery Ln",
    "city": "Littleton",
    "state": "Colorado",
    "postal_code": 80120,
    "website_url": "http://www.breckenridgebrewery.com",
    "phone": 3036232739
  },
  {
    "id": 56,
    "name": "Breckenridge Brewery & Pub",
    "brewery_type": "large",
    "street": "600 S Main St",
    "city": "Breckenridge",
    "state": "Colorado",
    "postal_code": 80424,
    "website_url": "http://www.breckbrewpub.com",
    "phone": 9704531550,
    "longitude": -106.0445665,
    "latitude": 39.47620392
  },
  {
    "id": 57,
    "name": "Brew Pub and Kitchen",
    "brewery_type": "brewpub",
    "street": "117 W College Dr",
    "city": "Durango",
    "state": "Colorado",
    "postal_code": 81301,
    "website_url": "http://www.brewpubkitchen.com",
    "phone": 9702595959,
    "longitude": -107.8831549,
    "latitude": 37.27036464
  },
  {
    "id": 58,
    "name": "Brewability Lab",
    "brewery_type": "micro",
    "street": "12445 E 39th Ave Unit 314",
    "city": "Denver",
    "state": "Colorado",
    "postal_code": 80239,
    "website_url": "http://www.Brewabilitylab.com",
    "phone": 8163515085
  },
  {
    "id": 59,
    "name": "Brewery Rickoli",
    "brewery_type": "micro",
    "street": "4335 Wadsworth Blvd",
    "city": "Wheat Ridge",
    "state": "Colorado",
    "postal_code": 80033,
    "website_url": "http://www.breweryrickoli.com",
    "phone": 3034316862,
    "longitude": -105.0818046,
    "latitude": 39.7757286
  },
  {
    "id": 60,
    "name": "Brewmented",
    "brewery_type": "micro",
    "street": "900 S Hover St Ste C",
    "city": "Longmont",
    "state": "Colorado",
    "postal_code": 80501,
    "website_url": "http://www.brewmented.com",
    "phone": 8772579956
  },
  {
    "id": 61,
    "name": "Briar Common Brewery",
    "brewery_type": "brewpub",
    "street": "2298 N Clay St",
    "city": "Denver",
    "state": "Colorado",
    "postal_code": 80211,
    "website_url": "http://www.briarcommon.com",
    "phone": 7204703731
  },
  {
    "id": 62,
    "name": "Bristol Brewing Co",
    "brewery_type": "micro",
    "street": "1604 S Cascade Ave",
    "city": "Colorado Springs",
    "state": "Colorado",
    "postal_code": 80905,
    "website_url": "http://www.bristolbrewing.com",
    "phone": 7196332555,
    "longitude": -104.827401,
    "latitude": 38.8108617
  },
  {
    "id": 63,
    "name": "Brix Taphouse and Brewery",
    "brewery_type": "brewpub",
    "street": "813 8th St",
    "city": "Greeley",
    "state": "Colorado",
    "postal_code": 80631,
    "website_url": "http://www.brixtaphouseandbrewery.com",
    "phone": 9703976146,
    "longitude": -104.6911371,
    "latitude": 40.42495461
  },
  {
    "id": 64,
    "name": "Broken Compass Brewing",
    "brewery_type": "micro",
    "street": "68 Continental Ct Unit B-12",
    "city": "Breckenridge",
    "state": "Colorado",
    "postal_code": 80424,
    "website_url": "http://www.brokencompassbrewing.com",
    "phone": 5419053016
  },
  {
    "id": 65,
    "name": "Broken Plow Brewery",
    "brewery_type": "micro",
    "street": "4731 W 10th St Unit G",
    "city": "Greeley",
    "state": "Colorado",
    "postal_code": 80634,
    "website_url": "http://www.brokenplowbrewery.com",
    "phone": 9703978373
  },
  {
    "id": 66,
    "name": "BRU Handbuilt Ales and Eats",
    "brewery_type": "brewpub",
    "street": "5290 Arapahoe Ave",
    "city": "Boulder",
    "state": "Colorado",
    "postal_code": 80303,
    "website_url": "http://www.bruboulder.com",
    "phone": 7206385193,
    "longitude": -105.2293345,
    "latitude": 40.0141462
  },
  {
    "id": 67,
    "name": "Brues Alehouse Brewing Company",
    "brewery_type": "brewpub",
    "street": "120 Riverwalk Place",
    "city": "Pueblo",
    "state": "Colorado",
    "postal_code": 81003,
    "website_url": "http://www.bruesalehouse.com",
    "phone": 7199249670
  },
  {
    "id": 68,
    "name": "Bruz Beers",
    "brewery_type": "micro",
    "street": "1675 W 67th Ave Ste 100",
    "city": "Denver",
    "state": "Colorado",
    "postal_code": 80221,
    "website_url": "http://www.bruzbeers.com",
    "phone": 3036502337
  },
  {
    "id": 69,
    "name": "Buckhorn Brewers LLC",
    "brewery_type": "micro",
    "street": "4229 W Eisenhower Blvd",
    "city": "Loveland",
    "state": "Colorado",
    "postal_code": 80537,
    "phone": 9709808688,
    "longitude": -105.0925735,
    "latitude": 40.4058904
  },
  {
    "id": 70,
    "name": "Bull & Bush Brewery",
    "brewery_type": "brewpub",
    "street": "4700 E Cherry Creek South Dr",
    "city": "Denver",
    "state": "Colorado",
    "postal_code": 80246,
    "website_url": "http://www.bullandbush.com",
    "phone": 3037590333,
    "longitude": -104.9488456,
    "latitude": 39.7116689
  },
  {
    "id": 71,
    "name": "Burgundian Brewing Co.",
    "brewery_type": "micro",
    "street": "4725 Lipan St",
    "city": "Denver",
    "state": "Colorado",
    "postal_code": 80211,
    "website_url": "http://www.facebook.com/BurgundianBrewing",
    "phone": 4704400420,
    "longitude": -105.0024095,
    "latitude": 39.7825168
  },
  {
    "id": 72,
    "name": "Burly Brewing Company, LLC",
    "brewery_type": "micro",
    "street": "680 Atchison Way Ste 700-800",
    "city": "Castle Rock",
    "state": "Colorado",
    "postal_code": 80109,
    "website_url": "http://www.burlybrewing.com"
  },
  {
    "id": 73,
    "name": "Butcherknife Brewing Company",
    "brewery_type": "micro",
    "street": "2875 Elk River Rd",
    "city": "Steamboat Springs",
    "state": "Colorado",
    "postal_code": 80487,
    "website_url": "http://www.butcherknifebrewing.com",
    "phone": 9708792337,
    "longitude": -106.857763,
    "latitude": 40.510887
  },
  {
    "id": 74,
    "name": "C.B. and Potts/Big Horn Brewery - Englewood",
    "brewery_type": "brewpub",
    "street": "6575 Greenwood Plaza Blvd",
    "city": "Englewood",
    "state": "Colorado",
    "postal_code": 80111,
    "website_url": "http://www.cbpotts.com",
    "phone": 3037701982
  },
  {
    "id": 75,
    "name": "C.B. and Potts/Big Horn Brewery - Highlands Ranch",
    "brewery_type": "brewpub",
    "street": "43 W Centennial Blvd",
    "city": "Highlands Ranch",
    "state": "Colorado",
    "postal_code": 80129,
    "website_url": "http://www.cbpotts.com",
    "phone": 7203441200,
    "longitude": -104.9887246,
    "latitude": 39.56211674
  },
  {
    "id": 76,
    "name": "C.B. and Potts/Big Horn Brewery - Westminster",
    "brewery_type": "brewpub",
    "street": "1257 W 120th Ave",
    "city": "Westminster",
    "state": "Colorado",
    "postal_code": 80234,
    "website_url": "http://www.cbpotts.com",
    "phone": 3034515767,
    "longitude": -105.0040899,
    "latitude": 39.91376115
  },
  {
    "id": 77,
    "name": "Call To Arms Brewing Company",
    "brewery_type": "micro",
    "street": "4526 Tennyson St",
    "city": "Denver",
    "state": "Colorado",
    "postal_code": 80212,
    "website_url": "http://www.facebook.com/calltoarmsbrewing",
    "longitude": -105.0435373,
    "latitude": 39.7788541
  },
  {
    "id": 78,
    "name": "Cannonball Creek Brewing Co",
    "brewery_type": "micro",
    "street": "393 Washington Ave Unit A",
    "city": "Golden",
    "state": "Colorado",
    "postal_code": 80403,
    "website_url": "http://www.cannonballcreekbrewing.com",
    "phone": 3032780111
  },
  {
    "id": 79,
    "name": "Capitol Creek Brewery",
    "brewery_type": "brewpub",
    "street": "371 Market St",
    "city": "Basalt",
    "state": "Colorado",
    "postal_code": 81621,
    "website_url": "http://www.capitolcreekbrewery.com",
    "phone": 8704043657
  },
  {
    "id": 80,
    "name": "Carbondale Beer Works",
    "brewery_type": "brewpub",
    "street": "647 Main St",
    "city": "Carbondale",
    "state": "Colorado",
    "postal_code": 81623,
    "website_url": "http://www.carbondalebeerworks.com",
    "longitude": -107.2134909,
    "latitude": 39.40060712
  },
  {
    "id": 81,
    "name": "Carver Brewing Co",
    "brewery_type": "brewpub",
    "street": "1022 Main Ave",
    "city": "Durango",
    "state": "Colorado",
    "postal_code": 81301,
    "website_url": "http://carverbrewing.com",
    "phone": 9702592545,
    "longitude": -107.8800415,
    "latitude": 37.2748415
  },
  {
    "id": 82,
    "name": "Casey Brewing and Blending",
    "brewery_type": "micro",
    "street": "3421 Grand Ave Ste 4D",
    "city": "Glenwood Springs",
    "state": "Colorado",
    "postal_code": 81601,
    "website_url": "http://www.caseybrewing.com",
    "phone": 9702309691
  },
  {
    "id": 83,
    "name": "Castle Rock Beer Company",
    "brewery_type": "micro",
    "street": "514 Perry St Ste C106",
    "city": "Castle Rock",
    "state": "Colorado",
    "postal_code": 80104,
    "website_url": "http://www.castlerockbeerco.com",
    "phone": 7203289008
  },
  {
    "id": 84,
    "name": "Cellar West Artisan Ales",
    "brewery_type": "micro",
    "street": "1001 Lee Hill Dr Ste 10",
    "city": "Boulder",
    "state": "Colorado",
    "postal_code": 80302,
    "website_url": "http://www.cellarwest.com",
    "phone": 2627198795
  },
  {
    "id": 85,
    "name": "Cerberus Brewing Company",
    "brewery_type": "brewpub",
    "street": "702 W Colorado Ave",
    "city": "Colorado Springs",
    "state": "Colorado",
    "postal_code": 80905,
    "website_url": "http://www.cerberusbrewingco.com",
    "phone": 7196362337,
    "longitude": -104.8374071,
    "latitude": 38.8330574
  },
  {
    "id": 86,
    "name": "Cerebral Brewing",
    "brewery_type": "micro",
    "street": "1477 Monroe St",
    "city": "Denver",
    "state": "Colorado",
    "postal_code": 80206,
    "website_url": "http://www.cerebralbrewing.com",
    "phone": 3039277365,
    "longitude": -104.9451783,
    "latitude": 39.73968253
  },
  {
    "id": 87,
    "name": "Chain Reaction Brewing Company",
    "brewery_type": "micro",
    "street": "902 S Lipan St",
    "city": "Denver",
    "state": "Colorado",
    "postal_code": 80223,
    "website_url": "http://www.chainreactionbrewingco.com",
    "phone": 3039220960,
    "longitude": -105.001629,
    "latitude": 39.69879376
  },
  {
    "id": 88,
    "name": "Cheluna Brewing Company",
    "brewery_type": "micro",
    "street": "2501 Dallas St Unit 148",
    "city": "Aurora",
    "state": "Colorado",
    "postal_code": 80010,
    "website_url": "http://www.cheluna.com",
    "phone": 7206000020
  },
  {
    "id": 89,
    "name": "ChopHouse and Brewery - Denver",
    "brewery_type": "brewpub",
    "street": "1735 19th St Ste 100",
    "city": "Denver",
    "state": "Colorado",
    "postal_code": 80202,
    "website_url": "http://www.craftworksrestaurants.com",
    "phone": 3032960800
  },
  {
    "id": 90,
    "name": "City Star Brewing",
    "brewery_type": "micro",
    "street": "321 Mountain Avenue",
    "city": "Berthoud",
    "state": "Colorado",
    "postal_code": 80513,
    "website_url": "http://www.citystarbrewing.com",
    "phone": 9705327827,
    "longitude": -105.0809465,
    "latitude": 40.30505214
  },
  {
    "id": 91,
    "name": "CO-Brew",
    "brewery_type": "micro",
    "street": "1133 N Broadway",
    "city": "Denver",
    "state": "Colorado",
    "postal_code": 80203,
    "website_url": "http://www.cobrewdenver.com",
    "phone": 7204854959
  },
  {
    "id": 92,
    "name": "Coal Mine Ave Brewing Company",
    "brewery_type": "micro",
    "street": "9719 W Coal Mine Ave Unit A",
    "city": "Littleton",
    "state": "Colorado",
    "postal_code": 80123,
    "website_url": "http://www.coalmineavebrewing.com",
    "phone": 7205044866
  },
  {
    "id": 93,
    "name": "Cogstone Brewing Co",
    "brewery_type": "brewpub",
    "street": "3858 Village Seven Rd",
    "city": "Colorado Springs",
    "state": "Colorado",
    "postal_code": 80917,
    "website_url": "http://www.cogstonebrewing.com",
    "phone": 7194186595,
    "longitude": -104.75566,
    "latitude": 38.87959595
  },
  {
    "id": 94,
    "name": "Colorado Boy Pizzeria",
    "brewery_type": "brewpub",
    "street": "320 E Main St",
    "city": "Montrose",
    "state": "Colorado",
    "postal_code": 81401,
    "website_url": "http://www.coloradoboy.com",
    "phone": 9702402790,
    "longitude": -107.877366,
    "latitude": 38.47887872
  },
  {
    "id": 95,
    "name": "Colorado Boy Pub & Brewery",
    "brewery_type": "brewpub",
    "street": "602 Clinton St.",
    "city": "Ridgway",
    "state": "Colorado",
    "postal_code": 81432,
    "website_url": "http://www.coloradoboy.com",
    "phone": 9706265333,
    "longitude": -107.7577685,
    "latitude": 38.152358
  },
  {
    "id": 96,
    "name": "Colorado Farm Brewery",
    "brewery_type": "micro",
    "street": "2070 County Road 12 S",
    "city": "Alamosa",
    "state": "Colorado",
    "postal_code": 81101,
    "website_url": "http://www.cofarmbeer.com",
    "phone": 7195800051,
    "longitude": -105.9855918,
    "latitude": 37.40026048
  },
  {
    "id": 97,
    "name": "Colorado Mountain Brewery At the Roundhouse",
    "brewery_type": "brewpub",
    "street": "600 S 21st St Unit 180",
    "city": "Colorado Springs",
    "state": "Colorado",
    "postal_code": 80904,
    "website_url": "http://www.cmbrew.com",
    "phone": 7194668240
  },
  {
    "id": 98,
    "name": "Colorado Mountain Brewery",
    "brewery_type": "micro",
    "street": "1110 Interquest Pkwy",
    "city": "Colorado Springs",
    "state": "Colorado",
    "postal_code": 80921,
    "website_url": "http://www.cmbrew.com",
    "phone": 7192717951,
    "longitude": -104.8083989,
    "latitude": 38.99103716
  },
  {
    "id": 99,
    "name": "Colorado Plus",
    "brewery_type": "brewpub",
    "street": "6995 W 38th Ave",
    "city": "Wheat Ridge",
    "state": "Colorado",
    "postal_code": 80033,
    "website_url": "http://coloradoplus.net",
    "phone": 3038775957,
    "longitude": -105.0916384,
    "latitude": 39.7693524
  },
  {
    "id": 100,
    "name": "Comrade Brewing Company",
    "brewery_type": "micro",
    "street": "7667 E Iliff Ave Ste F",
    "city": "Denver",
    "state": "Colorado",
    "postal_code": 80231,
    "website_url": "http://comradebrewing.com",
    "phone": 7207480700
  },
  {
    "id": 101,
    "name": "CooperSmiths Pub and Brewing",
    "brewery_type": "brewpub",
    "street": "5 Old Town Sq",
    "city": "Fort Collins",
    "state": "Colorado",
    "postal_code": 80524,
    "website_url": "http://www.coopersmithspub.com",
    "phone": 9704980483,
    "longitude": -105.0755188,
    "latitude": 40.5873784
  },
  {
    "id": 102,
    "name": "Copper Club Brewing Co",
    "brewery_type": "micro",
    "street": "233 E Aspen Ave",
    "city": "Fruita",
    "state": "Colorado",
    "postal_code": 81521,
    "website_url": "http://www.copperclubbrew.com",
    "phone": 9708588318,
    "longitude": -108.7314921,
    "latitude": 39.1591638
  },
  {
    "id": 103,
    "name": "Copper Kettle Brewing Company",
    "brewery_type": "micro",
    "street": "1338 S Valentia St Ste 100",
    "city": "Denver",
    "state": "Colorado",
    "postal_code": 80247,
    "website_url": "http://www.copperkettledenver.com",
    "phone": 7204432522
  },
  {
    "id": 104,
    "name": "Crabtree Brewing",
    "brewery_type": "micro",
    "street": "2961 W 29th St",
    "city": "Greeley",
    "state": "Colorado",
    "postal_code": 80631,
    "website_url": "http://www.crabtreebrewing.com",
    "phone": 9703560516,
    "longitude": -104.7875038,
    "latitude": 40.3899004
  },
  {
    "id": 105,
    "name": "Crazy Mountain Brewing Co",
    "brewery_type": "regional",
    "street": "471 Kalamath St",
    "city": "Denver",
    "state": "Colorado",
    "postal_code": 80204,
    "website_url": "http://www.crazymountainbrewery.com",
    "phone": 9709263009,
    "longitude": -105.0002926,
    "latitude": 39.72361171
  },
  {
    "id": 106,
    "name": "Crestone Brewing Company",
    "brewery_type": "brewpub",
    "street": "187 West Silver Ave.",
    "city": "Crestone",
    "state": "Colorado",
    "postal_code": 81131,
    "website_url": "http://www.crestonebrewingco.com",
    "phone": 7192566400
  },
  {
    "id": 107,
    "name": "Crooked Stave Artisan Beer Project",
    "brewery_type": "micro",
    "street": "1441 W 46th Ave Unit 17",
    "city": "Denver",
    "state": "Colorado",
    "postal_code": 80211,
    "website_url": "http://www.crookedstave.com",
    "phone": 7205083292
  },
  {
    "id": 108,
    "name": "Crow Hop Brewing Co. Ltd.",
    "brewery_type": "micro",
    "street": "214 E 4th St",
    "city": "Loveland",
    "state": "Colorado",
    "postal_code": 80537,
    "website_url": "http://www.crowhopbrewing.com",
    "phone": 9706330643,
    "longitude": -105.0735144,
    "latitude": 40.39536486
  },
  {
    "id": 109,
    "name": "Crystal Springs Brewing Co",
    "brewery_type": "micro",
    "street": "657 S Taylor Ave",
    "city": "Louisville",
    "state": "Colorado",
    "postal_code": 80027,
    "website_url": "http://www.crystalspringsbrewing.com",
    "phone": 3038845602,
    "longitude": -105.119781,
    "latitude": 39.964883
  },
  {
    "id": 110,
    "name": "D.C. Oakes Brewhouse and Eatery",
    "brewery_type": "brewpub",
    "street": "3581 E Harmony Suite 110",
    "city": "Fort Collins",
    "state": "Colorado",
    "postal_code": 80528,
    "website_url": "http://www.dcoakesbrewhouse.com",
    "phone": 3034061757
  },
  {
    "id": 111,
    "name": "Dad & Dudes Breweria",
    "brewery_type": "brewpub",
    "street": "6730 S Cornerstar Way Ste D",
    "city": "Aurora",
    "state": "Colorado",
    "postal_code": 80016,
    "website_url": "http://breweria.com",
    "phone": 3034005699
  },
  {
    "id": 112,
    "name": "Dead Hippie Brewing",
    "brewery_type": "micro",
    "street": "3701 S Santa Fe Dr Unit 7",
    "city": "Sheridan",
    "state": "Colorado",
    "postal_code": 80110,
    "website_url": "http://www.deadhippiebrewing.com",
    "phone": 7204467961
  },
  {
    "id": 113,
    "name": "Dean and Co",
    "brewery_type": "micro",
    "street": "201 Grant St",
    "city": "La Junta",
    "state": "Colorado",
    "postal_code": 81050
  },
  {
    "id": 114,
    "name": "Declaration Brewing Company",
    "brewery_type": "micro",
    "street": "2030 S Cherokee St",
    "city": "Denver",
    "state": "Colorado",
    "postal_code": 80223,
    "website_url": "http://www.declarationbrewing.com",
    "phone": 3039557410,
    "longitude": -104.9910056,
    "latitude": 39.67973155
  },
  {
    "id": 115,
    "name": "Denver Beer Co Canworks",
    "brewery_type": "micro",
    "street": "4455 Jason St",
    "city": "Denver",
    "state": "Colorado",
    "postal_code": 80211,
    "phone": 7202954781,
    "longitude": -105.0008302,
    "latitude": 39.7769429
  },
  {
    "id": 116,
    "name": "Denver Beer Co",
    "brewery_type": "micro",
    "street": "1695 Platte St",
    "city": "Denver",
    "state": "Colorado",
    "postal_code": 80202,
    "website_url": "http://www.denverbeerco.com",
    "phone": 3034332739,
    "longitude": -105.0072502,
    "latitude": 39.7583143
  },
  {
    "id": 117,
    "name": "Denver Beer Co Olde Town Arvada",
    "brewery_type": "micro",
    "street": "5768 Olde Wadsworth Blvd",
    "city": "Arvada",
    "state": "Colorado",
    "postal_code": 80002,
    "longitude": -105.0814554,
    "latitude": 39.801625
  },
  {
    "id": 118,
    "name": "DeSteeg Brewing Co/Blind Faith Brewing",
    "brewery_type": "micro",
    "street": "4342 Tennyson St",
    "city": "Denver",
    "state": "Colorado",
    "postal_code": 80212,
    "website_url": "http://www.desteegbrewing.com",
    "phone": 3034849698,
    "longitude": -105.0438193,
    "latitude": 39.7760619
  },
  {
    "id": 119,
    "name": "Diebolt Brewing",
    "brewery_type": "micro",
    "street": "3855 Mariposa St",
    "city": "Denver",
    "state": "Colorado",
    "postal_code": 80211,
    "website_url": "http://www.dieboltbrewing.com",
    "phone": 7206435940,
    "longitude": -105.0032079,
    "latitude": 39.770332
  },
  {
    "id": 120,
    "name": "Dillon Dam Brewery",
    "brewery_type": "brewpub",
    "street": "100 Little Dam Street",
    "city": "Dillon",
    "state": "Colorado",
    "postal_code": 80435,
    "website_url": "http://www.dambrewery.com",
    "phone": 9702627777,
    "longitude": -106.0603129,
    "latitude": 39.62760465
  },
  {
    "id": 121,
    "name": "Dive Bar Brewing Company",
    "brewery_type": "proprietor",
    "street": "5994 S Holly Street #146",
    "city": "Greenwood Village",
    "state": "Colorado",
    "postal_code": 80111,
    "website_url": "http://divebarbeer.com",
    "phone": 3039134355
  },
  {
    "id": 122,
    "name": "Dolores River Brewery",
    "brewery_type": "brewpub",
    "street": "100 S. 4th St.",
    "city": "Dolores",
    "state": "Colorado",
    "postal_code": 81323,
    "website_url": "http://www.doloresriverbrewery.com",
    "phone": 9708824677,
    "longitude": -108.504562,
    "latitude": 37.47323
  },
  {
    "id": 123,
    "name": "Dos Luces Brewery",
    "brewery_type": "contract",
    "street": "1236 S Broadway",
    "city": "Denver",
    "state": "Colorado",
    "postal_code": 80210,
    "website_url": "http://www.dosluces.com",
    "phone": 3037254527,
    "longitude": -104.9874923,
    "latitude": 39.6830067
  },
  {
    "id": 124,
    "name": "Dostal Alley Brewing Co",
    "brewery_type": "brewpub",
    "street": "116 Main St",
    "city": "Central City",
    "state": "Colorado",
    "postal_code": 80427,
    "website_url": "http://www.dostalalley.net",
    "phone": 3035821610,
    "longitude": -105.512426,
    "latitude": 39.8001431
  },
  {
    "id": 125,
    "name": "Downhill Brewing",
    "brewery_type": "micro",
    "street": "18921 Plaza Dr Ste 104",
    "city": "Parker",
    "state": "Colorado",
    "postal_code": 80134,
    "website_url": "http://www.elkmountainbrewing.com",
    "phone": 3038052739
  },
  {
    "id": 126,
    "name": "Dry Dock Brewing Co - North Dock",
    "brewery_type": "regional",
    "street": "2801 Tower Rd",
    "city": "Aurora",
    "state": "Colorado",
    "postal_code": 80011,
    "website_url": "http://www.drydockbrewing.com",
    "phone": 3034005606,
    "longitude": -104.772404,
    "latitude": 39.758038
  },
  {
    "id": 127,
    "name": "Dry Dock Brewing Co- South Dock",
    "brewery_type": "micro",
    "street": "15120 E Hampden Ave",
    "city": "Aurora",
    "state": "Colorado",
    "postal_code": 80014,
    "website_url": "http://www.drydockbrewing.com",
    "phone": 3034005606,
    "longitude": -104.7680096,
    "latitude": 39.6529424
  },
  {
    "id": 128,
    "name": "Dueces Wild Brewery",
    "brewery_type": "micro",
    "street": "660 Peterson Rd",
    "city": "Colorado Springs",
    "state": "Colorado",
    "postal_code": 80915,
    "website_url": "http://www.dwbbrewery.com",
    "phone": 6079729260,
    "longitude": -104.7034318,
    "latitude": 38.8877651
  },
  {
    "id": 129,
    "name": "Durango Brewing Co",
    "brewery_type": "brewpub",
    "street": "3000 Main Ave",
    "city": "Durango",
    "state": "Colorado",
    "postal_code": 81301,
    "website_url": "http://www.durangobrewing.com",
    "phone": 9702473396,
    "longitude": -107.871981,
    "latitude": 37.297647
  },
  {
    "id": 130,
    "name": "Echo Brewing Cask and Barrel",
    "brewery_type": "brewpub",
    "street": "600 Briggs St",
    "city": "Erie",
    "state": "Colorado",
    "postal_code": 80516,
    "phone": 7203612332,
    "longitude": -105.0477679,
    "latitude": 40.05042825
  },
  {
    "id": 131,
    "name": "Echo Brewing Company",
    "brewery_type": "brewpub",
    "street": "5969 Iris Pkwy",
    "city": "Frederick",
    "state": "Colorado",
    "postal_code": 80530,
    "longitude": -104.944202,
    "latitude": 40.111448
  },
  {
    "id": 132,
    "name": "Eddyline Brewing LLC",
    "brewery_type": "micro",
    "street": "102 Linderman Ave",
    "city": "Buena Vista",
    "state": "Colorado",
    "postal_code": 81211,
    "website_url": "http://eddylinebrewery.com",
    "phone": 7199666018,
    "longitude": -106.131606,
    "latitude": 38.84025
  },
  {
    "id": 133,
    "name": "Edgewater Brewery",
    "brewery_type": "brewpub",
    "street": "905 Struthers Ave",
    "city": "Grand Junction",
    "state": "Colorado",
    "postal_code": 81501,
    "website_url": "http://www.kannahcreekbrewingco.com/edgewater-brewery",
    "phone": 9702433659,
    "longitude": -108.5575144,
    "latitude": 39.05565588
  },
  {
    "id": 134,
    "name": "El Rancho Brewing",
    "brewery_type": "brewpub",
    "street": "29260 US Highway 40",
    "city": "Evergreen",
    "state": "Colorado",
    "postal_code": 80439,
    "website_url": "http://www.elranchobrewing.com",
    "phone": 3036702739
  },
  {
    "id": 135,
    "name": "Elevation Beer Company",
    "brewery_type": "micro",
    "street": "115 Pahlone Pkwy",
    "city": "Poncha Springs",
    "state": "Colorado",
    "postal_code": 81242,
    "longitude": -106.0659377,
    "latitude": 38.51804434
  },
  {
    "id": 136,
    "name": "Elk Avenue Brewing Company",
    "brewery_type": "brewpub",
    "street": "215 Elk Avenue",
    "city": "Crested Butte",
    "state": "Colorado",
    "postal_code": 81224,
    "phone": 7733307876,
    "longitude": -106.9861689,
    "latitude": 38.86984685
  },
  {
    "id": 137,
    "name": "Endo Brewing Company",
    "brewery_type": "micro",
    "street": "2755 Dagny Way Ste 101",
    "city": "Lafayette",
    "state": "Colorado",
    "postal_code": 80026,
    "website_url": "http://endobrewing.com",
    "phone": 7204428052,
    "longitude": -105.1341065,
    "latitude": 40.0144311
  },
  {
    "id": 138,
    "name": "Epic Brewing Co., LLC",
    "brewery_type": "micro",
    "street": "3001 Walnut St",
    "city": "Denver",
    "state": "Colorado",
    "postal_code": 80205,
    "website_url": "http://www.epicbrewing.com",
    "phone": 7205397410,
    "longitude": -104.9813405,
    "latitude": 39.7632294
  },
  {
    "id": 139,
    "name": "Equinox Brewing",
    "brewery_type": "micro",
    "street": "133 Remington St",
    "city": "Fort Collins",
    "state": "Colorado",
    "postal_code": 80524,
    "website_url": "http://www.equinoxbrewing.com",
    "phone": 9704841368,
    "longitude": -105.0757134,
    "latitude": 40.5863266
  },
  {
    "id": 140,
    "name": "Estes Park Brewery",
    "brewery_type": "micro",
    "street": "470 Prospect Village Dr",
    "city": "Estes Park",
    "state": "Colorado",
    "postal_code": 80517,
    "website_url": "http://www.epbrewery.net",
    "phone": 9705865421,
    "longitude": -105.5261317,
    "latitude": 40.3714876
  },
  {
    "id": 141,
    "name": "Evergreen Brewery",
    "brewery_type": "brewpub",
    "street": "2962 Evergreen Pkwy",
    "city": "Evergreen",
    "state": "Colorado",
    "postal_code": 80439,
    "website_url": "http://www.evergreentaphouse.com",
    "phone": 3037368419
  },
  {
    "id": 142,
    "name": "Factotum Brewhouse",
    "brewery_type": "micro",
    "street": "3845 Lipan St",
    "city": "Denver",
    "state": "Colorado",
    "postal_code": 80211,
    "website_url": "http://www.factotumbrewhouse.com",
    "phone": 7204414735,
    "longitude": -105.0020653,
    "latitude": 39.7702043
  },
  {
    "id": 143,
    "name": "FATE Brewing Company",
    "brewery_type": "brewpub",
    "street": "1600 38th St Ste 100",
    "city": "Boulder",
    "state": "Colorado",
    "postal_code": 80301,
    "longitude": -105.2454818,
    "latitude": 40.0149794
  },
  {
    "id": 144,
    "name": "Fermaentra",
    "brewery_type": "micro",
    "street": "1715 E Evans Ave",
    "city": "Denver",
    "state": "Colorado",
    "postal_code": 80210,
    "website_url": "http://www.fermaentra.com",
    "phone": 3039550736,
    "longitude": -104.9428631,
    "latitude": 39.6784277
  },
  {
    "id": 145,
    "name": "FH Beerworks",
    "brewery_type": "micro",
    "street": "521 S Tejon St",
    "city": "Colorado Springs",
    "state": "Colorado",
    "postal_code": 80903,
    "phone": 7196406814,
    "longitude": -104.8237318,
    "latitude": 38.8260086
  },
  {
    "id": 146,
    "name": "Fiction Beer Company",
    "brewery_type": "micro",
    "street": "7101 E Colfax Ave",
    "city": "Denver",
    "state": "Colorado",
    "postal_code": 80220,
    "website_url": "http://www.fictionbeer.com",
    "phone": 7204567163,
    "longitude": -104.8854207,
    "latitude": 39.7402188
  },
  {
    "id": 147,
    "name": "Finkel & Garf Brewing Co.",
    "brewery_type": "micro",
    "street": "5455 Spine Rd Ste A",
    "city": "Boulder",
    "state": "Colorado",
    "postal_code": 80301,
    "website_url": "http://www.finkelandgarf.com"
  },
  {
    "id": 148,
    "name": "Floodstage Ale Works",
    "brewery_type": "brewpub",
    "street": "170 S Main St",
    "city": "Brighton",
    "state": "Colorado",
    "postal_code": 80601,
    "website_url": "http://www.floodstagealeworks.com",
    "phone": 3036547972,
    "longitude": -104.8221009,
    "latitude": 39.98456564
  },
  {
    "id": 149,
    "name": "Florence Brewing Company",
    "brewery_type": "micro",
    "street": "200 S Pikes Peak Ave",
    "city": "Florence",
    "state": "Colorado",
    "postal_code": 81226,
    "website_url": "http://www.florencebrewing.com",
    "phone": 7197847441,
    "longitude": -105.1177755,
    "latitude": 38.3899222
  },
  {
    "id": 150,
    "name": "Fossil Craft Beer Co",
    "brewery_type": "micro",
    "street": "2845 Ore Mill Rd Ste 1",
    "city": "Colorado Springs",
    "state": "Colorado",
    "postal_code": 80904,
    "website_url": "http://www.fossilcraftbeer.com",
    "phone": 7193758298
  },
  {
    "id": 151,
    "name": "Frolic Brewing Company",
    "brewery_type": "brewpub",
    "street": "12910 Zuni St Ste 1300",
    "city": "Westminster",
    "state": "Colorado",
    "postal_code": 80234,
    "website_url": "http://www.frolicbrewing.com"
  },
  {
    "id": 152,
    "name": "Front Range Brewing Co.",
    "brewery_type": "brewpub",
    "street": "400 W South Boulder Rd Ste 1650",
    "city": "Lafayette",
    "state": "Colorado",
    "postal_code": 80026,
    "website_url": "http://www.frontrangebrewingcompany.com",
    "phone": 3033390767
  },
  {
    "id": 153,
    "name": "Funkwerks",
    "brewery_type": "micro",
    "street": "1900 E Lincoln Ave Unit B",
    "city": "Fort Collins",
    "state": "Colorado",
    "postal_code": 80524,
    "website_url": "http://www.funkwerks.com",
    "phone": 9704823865
  },
  {
    "id": 154,
    "name": "Gilded Goat Brewing Company",
    "brewery_type": "micro",
    "street": "3500 S College Ave Ste 194",
    "city": "Fort Collins",
    "state": "Colorado",
    "postal_code": 80525,
    "website_url": "http://www.gildedgoatbrewing.com",
    "phone": 9708257192
  },
  {
    "id": 155,
    "name": "Glenwood Canyon Brewing Co",
    "brewery_type": "brewpub",
    "street": "402 7th St",
    "city": "Glenwood Springs",
    "state": "Colorado",
    "postal_code": 81601,
    "website_url": "http://www.glenwoodcanyon.com",
    "phone": 9709451276,
    "longitude": -107.323424,
    "latitude": 39.5476563
  },
  {
    "id": 156,
    "name": "Goat Patch Brewing Co.",
    "brewery_type": "micro",
    "street": "2727 N Cascade Ave Ste 123",
    "city": "Colorado Springs",
    "state": "Colorado",
    "postal_code": 80907,
    "website_url": "http://www.goatpatchbrewing.com",
    "phone": 7194714628
  },
  {
    "id": 157,
    "name": "Gold Camp Brewing Co",
    "brewery_type": "micro",
    "street": "1007 S Tejon St",
    "city": "Colorado Springs",
    "state": "Colorado",
    "postal_code": 80903,
    "phone": 7196950344,
    "longitude": -104.823552,
    "latitude": 38.8195724
  },
  {
    "id": 158,
    "name": "Golden Block Brewery",
    "brewery_type": "brewpub",
    "street": "1227 Greene St",
    "city": "Silverton",
    "state": "Colorado",
    "postal_code": 81433,
    "website_url": "http://www.goldenblockbrewery.com",
    "phone": 9703875962,
    "longitude": -107.6642307,
    "latitude": 37.81194434
  },
  {
    "id": 159,
    "name": "Golden City Brewery",
    "brewery_type": "brewpub",
    "street": "920 1/2 12th St",
    "city": "Golden",
    "state": "Colorado",
    "postal_code": 80401,
    "phone": 3032798092,
    "longitude": -105.2227813,
    "latitude": 39.75471167
  },
  {
    "id": 160,
    "name": "Goldspot Brewing Co",
    "brewery_type": "micro",
    "street": "4970 Lowell Blvd",
    "city": "Denver",
    "state": "Colorado",
    "postal_code": 80221,
    "website_url": "http://www.goldspotbrewing.com",
    "phone": 3039555657,
    "longitude": -105.0343545,
    "latitude": 39.7868924
  },
  {
    "id": 161,
    "name": "Good River Beer Company",
    "brewery_type": "contract",
    "street": "1790 S Bannock St.",
    "city": "Denver",
    "state": "Colorado",
    "postal_code": 80223,
    "website_url": "http://www.grbeerco.com",
    "phone": 6023697442,
    "longitude": -104.9898169,
    "latitude": 39.68421218
  },
  {
    "id": 162,
    "name": "Gordon Biersch Brewery Restaurant - Broomfield",
    "brewery_type": "brewpub",
    "street": "1 W Flatiron Crossing Dr Ste 428",
    "city": "Broomfield",
    "state": "Colorado",
    "postal_code": 80021,
    "website_url": "http://www.gordonbiersch.com/restaurant",
    "phone": 7208872991
  },
  {
    "id": 163,
    "name": "Gore Range Brewery",
    "brewery_type": "brewpub",
    "street": "105 Edwards Village Blvd",
    "city": "Edwards",
    "state": "Colorado",
    "postal_code": 81632,
    "website_url": "http://www.gorerangebrewery.com",
    "phone": 9709262739,
    "longitude": -106.5953228,
    "latitude": 39.64367461
  },
  {
    "id": 164,
    "name": "Grand Adventure Brewing Company",
    "brewery_type": "brewpub",
    "street": "207 Central Ave",
    "city": "Kremmling",
    "state": "Colorado",
    "postal_code": 80459,
    "website_url": "http://www.grandadventure.us",
    "phone": 9707249219,
    "longitude": -106.3925656,
    "latitude": 40.0599844
  },
  {
    "id": 165,
    "name": "Grand Lake Brewing Co, The",
    "brewery_type": "brewpub",
    "street": "5610 Yukon St",
    "city": "Arvada",
    "state": "Colorado",
    "postal_code": 80002,
    "website_url": "http://www.grandlakebrewing.com",
    "phone": 3039081677,
    "longitude": -105.082456,
    "latitude": 39.79927412
  },
  {
    "id": 166,
    "name": "Grandma's House",
    "brewery_type": "micro",
    "street": "1710 S Broadway",
    "city": "Denver",
    "state": "Colorado",
    "postal_code": 80210,
    "website_url": "http://www.grandmasbeer.com",
    "phone": 3035786754,
    "longitude": -104.9872737,
    "latitude": 39.74350567
  },
  {
    "id": 167,
    "name": "Gravity Brewing",
    "brewery_type": "micro",
    "street": "1150 Pine St Unit B",
    "city": "Louisville",
    "state": "Colorado",
    "postal_code": 80027,
    "website_url": "http://www.thegravitybrewing.com",
    "phone": 3035440746
  },
  {
    "id": 168,
    "name": "Great Divide Brewing Co",
    "brewery_type": "regional",
    "street": "2201 Arapahoe St",
    "city": "Denver",
    "state": "Colorado",
    "postal_code": 80205,
    "website_url": "http://www.greatdivide.com",
    "phone": 3032969460,
    "longitude": -104.9885279,
    "latitude": 39.7539229
  },
  {
    "id": 169,
    "name": "Great Divide Brewing Co - RiNo Barrel Bar",
    "brewery_type": "micro",
    "street": "1812 35th St",
    "city": "Denver",
    "state": "Colorado",
    "postal_code": 80216,
    "website_url": "http://greatdivide.com/",
    "phone": 3032969460,
    "longitude": -104.979247,
    "latitude": 39.7703322
  },
  {
    "id": 170,
    "name": "Great Frontier Brewing Company",
    "brewery_type": "micro",
    "street": "2010 S Oak St",
    "city": "Lakewood",
    "state": "Colorado",
    "postal_code": 80227,
    "website_url": "http://www.greatfrontierbeer.com",
    "phone": 7203281758,
    "longitude": -105.1177216,
    "latitude": 39.6813614
  },
  {
    "id": 171,
    "name": "Green Earth Brewing Company",
    "brewery_type": "micro",
    "street": "725 10th St Unit A",
    "city": "Greeley",
    "state": "Colorado",
    "postal_code": 80631,
    "website_url": "http://www.greenearthbrewingco.com",
    "phone": 9707022332
  },
  {
    "id": 172,
    "name": "Green Mountain Beer Company",
    "brewery_type": "micro",
    "street": "2585 S Lewis Way Unit 110",
    "city": "Lakewood",
    "state": "Colorado",
    "postal_code": 80227,
    "website_url": "http://www.greenmountainbeercompany.com",
    "phone": 3039860201
  },
  {
    "id": 173,
    "name": "Grimm Brothers Brewhouse, LLC",
    "brewery_type": "micro",
    "street": "623 Denver Ave",
    "city": "Loveland",
    "state": "Colorado",
    "postal_code": 80537,
    "website_url": "http://www.grimmbeer.com",
    "phone": 9706246045
  },
  {
    "id": 174,
    "name": "Grist Brewing Company",
    "brewery_type": "micro",
    "street": "9150 Commerce Center Cir Ste 300",
    "city": "Highlands Ranch",
    "state": "Colorado",
    "postal_code": 80129,
    "website_url": "http://gristbrewingcompany.com",
    "phone": 703604782
  },
  {
    "id": 175,
    "name": "Grist Brewing Company - Lone Tree",
    "brewery_type": "micro",
    "street": "9535 Park Meadows Dr Ste F",
    "city": "Lone Tree",
    "state": "Colorado",
    "postal_code": 80124,
    "phone": 3037289394
  },
  {
    "id": 176,
    "name": "Grossen Bart Brewery",
    "brewery_type": "micro",
    "street": "1025 Delaware Ave Unit A",
    "city": "Longmont",
    "state": "Colorado",
    "postal_code": 80501,
    "website_url": "http://www.grossenbart.com",
    "phone": 7204382060
  },
  {
    "id": 177,
    "name": "Guanella Pass Brewing Company, LLC",
    "brewery_type": "micro",
    "street": "501 Rose Street",
    "city": "Georgetown",
    "state": "Colorado",
    "postal_code": 80444,
    "website_url": "http://www.guanellapass.com",
    "phone": 3035695167,
    "longitude": -105.697303,
    "latitude": 39.705772
  },
  {
    "id": 178,
    "name": "Gunbarrel Brewing Company",
    "brewery_type": "micro",
    "street": "7088 Winchester Cir Ste 2",
    "city": "Boulder",
    "state": "Colorado",
    "postal_code": 80301,
    "website_url": "http://www.gunbarrelbrewing.com",
    "phone": 8008035732
  },
  {
    "id": 179,
    "name": "Halfpenny Brewing Company",
    "brewery_type": "micro",
    "street": "5150 E Arapahoe Rd Ste D1-B",
    "city": "Centennial",
    "state": "Colorado",
    "postal_code": 80122,
    "website_url": "http://www.halfpennybrewing.com",
    "phone": 7205830580
  },
  {
    "id": 180,
    "name": "Hideaway Park Brewery",
    "brewery_type": "micro",
    "street": "78927 US Highway 40",
    "city": "Winter Park",
    "state": "Colorado",
    "postal_code": 80482,
    "website_url": "http://www.hideawayparkbrewery.com",
    "phone": 7204026513
  },
  {
    "id": 181,
    "name": "High Alpine Brewing Company",
    "brewery_type": "brewpub",
    "street": "111 N Main St",
    "city": "Gunnison",
    "state": "Colorado",
    "postal_code": 81230,
    "website_url": "http://www.highalpinebrewing.com",
    "phone": 9706424500,
    "longitude": -106.9270377,
    "latitude": 38.54462278
  },
  {
    "id": 182,
    "name": "High Hops Brewery",
    "brewery_type": "micro",
    "street": "6461 State Highway 392",
    "city": "Windsor",
    "state": "Colorado",
    "postal_code": 80550,
    "website_url": "http://www.highhopsbrewery.com",
    "phone": 9706742841,
    "longitude": -104.9357557,
    "latitude": 40.4799901
  },
  {
    "id": 183,
    "name": "HighSide Brewery",
    "brewery_type": "micro",
    "street": "720 Main St",
    "city": "Frisco",
    "state": "Colorado",
    "postal_code": 80443,
    "website_url": "http://www.highsidebrewing.com",
    "phone": 9706682337,
    "longitude": -106.0935416,
    "latitude": 39.57663329
  },
  {
    "id": 184,
    "name": "Hogshead Brewery",
    "brewery_type": "micro",
    "street": "4460 W 29th Ave",
    "city": "Denver",
    "state": "Colorado",
    "postal_code": 80212,
    "website_url": "http://www.hogsheadbrewery.com",
    "phone": 3038869655,
    "longitude": -105.04506,
    "latitude": 39.758232
  },
  {
    "id": 185,
    "name": "Holidaily Brewing Co",
    "brewery_type": "micro",
    "street": "801 Brickyard Cir Ste B",
    "city": "Golden",
    "state": "Colorado",
    "postal_code": 80403,
    "website_url": "http://www.holidailybrewing.com",
    "phone": 3032782337
  },
  {
    "id": 186,
    "name": "Horse & Dragon Brewing Company",
    "brewery_type": "micro",
    "street": "124 Racquette Dr",
    "city": "Fort Collins",
    "state": "Colorado",
    "postal_code": 80524,
    "website_url": "http://www.horseanddragonbrewing.com",
    "phone": 9706318038
  },
  {
    "id": 187,
    "name": "Horsefly Brewing Co",
    "brewery_type": "brewpub",
    "street": "846 E Main St",
    "city": "Montrose",
    "state": "Colorado",
    "postal_code": 81401,
    "website_url": "http://www.horseflybrewing.com",
    "phone": 9702496889,
    "longitude": -107.871306,
    "latitude": 38.48272365
  },
  {
    "id": 188,
    "name": "Idylwilde Brewing",
    "brewery_type": "micro",
    "street": "116 Fawn Dr",
    "city": "Carbondale",
    "state": "Colorado",
    "postal_code": 81623,
    "website_url": "http://idylwildebrewing.com",
    "phone": 9702746332
  },
  {
    "id": 189,
    "name": "Industrial Revolution Brewing Company",
    "brewery_type": "micro",
    "street": "285 Cheesman St",
    "city": "Erie",
    "state": "Colorado",
    "postal_code": 80516,
    "phone": 3038281200,
    "longitude": -105.0477556,
    "latitude": 40.05161529
  },
  {
    "id": 190,
    "name": "Intersect Brewing",
    "brewery_type": "micro",
    "street": "2160 W Drake Rd Unit A1",
    "city": "Fort Collins",
    "state": "Colorado",
    "postal_code": 80526,
    "website_url": "http://www.intersectbrewing.com",
    "phone": 9706822041
  },
  {
    "id": 191,
    "name": "Iron Bird Brewing Co.",
    "brewery_type": "brewpub",
    "street": "402 S Nevada Ave",
    "city": "Colorado Springs",
    "state": "Colorado",
    "postal_code": 80903,
    "website_url": "http://www.ironbirdbrewing.com",
    "phone": 7194247002,
    "longitude": -104.8223799,
    "latitude": 38.8280292
  },
  {
    "id": 192,
    "name": "Iron Tree Table & Taps",
    "brewery_type": "brewpub",
    "street": "37 Costello Ave",
    "city": "Florissant",
    "state": "Colorado",
    "postal_code": 80816,
    "website_url": "http://www.irontreerestaurant.com",
    "phone": 7197480124
  },
  {
    "id": 193,
    "name": "Ironworks Brewery & Pub",
    "brewery_type": "brewpub",
    "street": "12354 W Alameda Pkwy Ste 110",
    "city": "Lakewood",
    "state": "Colorado",
    "postal_code": 80228,
    "website_url": "http://www.ironworkspub.com",
    "phone": 3039855818
  },
  {
    "id": 194,
    "name": "Irwin Brewing Company",
    "brewery_type": "micro",
    "street": "326 Belleview",
    "city": "Crested Butte",
    "state": "Colorado",
    "postal_code": 81224,
    "website_url": "http://www.irwinbrewingco.com",
    "phone": 9702757578,
    "longitude": -106.9853012,
    "latitude": 38.86695573
  },
  {
    "id": 195,
    "name": "J. Fargo's Family Dining & Micro Brewery / Coyote J Brewing Co",
    "brewery_type": "brewpub",
    "street": "1209 E Main St",
    "city": "Cortez",
    "state": "Colorado",
    "postal_code": 81321,
    "website_url": "http://www.jfargos.com",
    "phone": 9705640242,
    "longitude": -108.570199,
    "latitude": 37.348775
  },
  {
    "id": 196,
    "name": "J Moe's Brewing Company",
    "brewery_type": "brewpub",
    "street": "7314 Washington St",
    "city": "Denver",
    "state": "Colorado",
    "postal_code": 80229,
    "website_url": "http://www.creedebeer.com",
    "phone": 3032874824,
    "longitude": -104.9791943,
    "latitude": 39.7800007
  },
  {
    "id": 197,
    "name": "Jagged Mountain Brewery",
    "brewery_type": "micro",
    "street": "1139 20th St",
    "city": "Denver",
    "state": "Colorado",
    "postal_code": 80202,
    "website_url": "http://www.jaggedmountainbrewery.com",
    "phone": 7206892337,
    "longitude": -104.9913673,
    "latitude": 39.7522457
  },
  {
    "id": 198,
    "name": "JAKs Brewing Company",
    "brewery_type": "micro",
    "street": "11860 Stapleton Dr",
    "city": "Peyton",
    "state": "Colorado",
    "postal_code": 80831,
    "website_url": "http://www.jaksbrewing.com",
    "phone": 7193751116
  },
  {
    "id": 199,
    "name": "James Peak Brewery",
    "brewery_type": "brewpub",
    "street": "70 E First St",
    "city": "Nederland",
    "state": "Colorado",
    "postal_code": 80466,
    "website_url": "http://www.jamespeakbrew.com",
    "phone": 3032589453
  },
  {
    "id": 200,
    "name": "Jessup Farm Barrel House",
    "brewery_type": "micro",
    "street": "1921 Jessup Dr",
    "city": "Fort Collins",
    "state": "Colorado",
    "postal_code": 80525,
    "website_url": "http://jessupfarm.com/barrel-house/",
    "phone": 9705688345,
    "longitude": -105.0380013,
    "latitude": 40.5620458
  },
  {
    "id": 201,
    "name": "Joyride Brewing Co",
    "brewery_type": "micro",
    "street": "2501 Sheridan Blvd",
    "city": "Edgewater",
    "state": "Colorado",
    "postal_code": 80214,
    "website_url": "http://joyridebrewing.com",
    "phone": 7204327560,
    "longitude": -105.053492,
    "latitude": 39.7531231
  },
  {
    "id": 202,
    "name": "Kannah Creek Brewing Co",
    "brewery_type": "brewpub",
    "street": "1960 N 12th St",
    "city": "Grand Junction",
    "state": "Colorado",
    "postal_code": 81501,
    "website_url": "http://www.kannahcreekbrewingco.com",
    "phone": 9702630111,
    "longitude": -108.5522615,
    "latitude": 39.08513947
  },
  {
    "id": 203,
    "name": "Kettle and Spoke Brewery, LLC",
    "brewery_type": "micro",
    "street": "2500 47th St Ste 12",
    "city": "Boulder",
    "state": "Colorado",
    "postal_code": 80301,
    "website_url": "http://www.kettleandspoke.com",
    "phone": 7196509697
  },
  {
    "id": 204,
    "name": "Kokopelli Beer Company",
    "brewery_type": "brewpub",
    "street": "8931 Harlan St",
    "city": "Westminster",
    "state": "Colorado",
    "postal_code": 80031,
    "website_url": "http://www.kokopellibeer.com",
    "phone": 7208406835,
    "longitude": -105.0640386,
    "latitude": 39.8590102
  },
  {
    "id": 205,
    "name": "Lady Justice Brewing Company",
    "brewery_type": "micro",
    "street": "4375 Eaton St",
    "city": "Denver",
    "state": "Colorado",
    "postal_code": 80212,
    "website_url": "http://www.ladyjusticebrewing.com",
    "longitude": -105.0593393,
    "latitude": 39.7909855
  },
  {
    "id": 206,
    "name": "Lake City Brewing Company",
    "brewery_type": "brewpub",
    "street": "130 Bluff St",
    "city": "Lake City",
    "state": "Colorado",
    "postal_code": 81235,
    "website_url": "http://www.lcbrewco.com",
    "phone": 9709445222,
    "longitude": -107.3191335,
    "latitude": 38.02729486
  },
  {
    "id": 207,
    "name": "Landlocked Ales",
    "brewery_type": "micro",
    "street": "3225 S Wadsworth Blvd Unit R",
    "city": "Lakewood",
    "state": "Colorado",
    "postal_code": 80227,
    "website_url": "http://www.landlockedales.com",
    "phone": 3032848748
  },
  {
    "id": 208,
    "name": "Lariat Lodge Brewing",
    "brewery_type": "brewpub",
    "street": "27618 Fireweed Dr",
    "city": "Evergreen",
    "state": "Colorado",
    "postal_code": 80439,
    "website_url": "http://www.LariatLodgeBrewing.com",
    "phone": 3036741842,
    "longitude": -105.3136925,
    "latitude": 39.63935145
  },
  {
    "id": 209,
    "name": "Launch Pad Brewery",
    "brewery_type": "micro",
    "street": "884 S Buckley Rd",
    "city": "Aurora",
    "state": "Colorado",
    "postal_code": 80017,
    "website_url": "http://www.launchpadbrewery.com",
    "phone": 7208782627,
    "longitude": -104.7911253,
    "latitude": 39.6853036
  },
  {
    "id": 210,
    "name": "Left Hand Brewing Company",
    "brewery_type": "regional",
    "street": "1265 Boston Ave",
    "city": "Longmont",
    "state": "Colorado",
    "postal_code": 80501,
    "website_url": "http://www.lefthandbrewing.com",
    "phone": 3037720258,
    "longitude": -105.1168403,
    "latitude": 40.158688
  },
  {
    "id": 211,
    "name": "Liquid Mechanics Brewing Company",
    "brewery_type": "micro",
    "street": "297 N US Highway 287",
    "city": "Lafayette",
    "state": "Colorado",
    "postal_code": 80026,
    "website_url": "http://www.liquidmechanicsbrewing.com",
    "phone": 7205507813
  },
  {
    "id": 212,
    "name": "Little Machine",
    "brewery_type": "micro",
    "street": "2924 W 20th Ave",
    "city": "Denver",
    "state": "Colorado",
    "postal_code": 80211,
    "website_url": "http://www.littlemachinebeer.com",
    "phone": 3032847893,
    "longitude": -105.0243557,
    "latitude": 39.7474051
  },
  {
    "id": 213,
    "name": "Living the Dream Brewing Co.",
    "brewery_type": "micro",
    "street": "12305 Dumont Way Unit A",
    "city": "Littleton",
    "state": "Colorado",
    "postal_code": 80125,
    "website_url": "http://www.livingthedreambrewing.com",
    "phone": 3032849585
  },
  {
    "id": 214,
    "name": "Local Relic",
    "brewery_type": "brewpub",
    "street": "320 S Weber St",
    "city": "Colorado Springs",
    "state": "Colorado",
    "postal_code": 80903,
    "website_url": "http://www.localrelic.com",
    "phone": 7192700077,
    "longitude": -104.8203866,
    "latitude": 38.82871975
  },
  {
    "id": 215,
    "name": "Locavore Beer Works",
    "brewery_type": "micro",
    "street": "5950 S Platte Canyon Rd Ste D13",
    "city": "Littleton",
    "state": "Colorado",
    "postal_code": 80123,
    "website_url": "http://www.locavorebeerworks.com",
    "phone": 7204764419
  },
  {
    "id": 216,
    "name": "Lone Tree Brewing Co",
    "brewery_type": "micro",
    "street": "8222 Park Meadows Dr",
    "city": "Lone Tree",
    "state": "Colorado",
    "postal_code": 80124,
    "website_url": "http://www.lonetreebrewingco.com",
    "phone": 3037925822,
    "longitude": -104.8942075,
    "latitude": 39.56298697
  },
  {
    "id": 217,
    "name": "Long Table Brewing",
    "brewery_type": "micro",
    "street": "2895 Fairfax St",
    "city": "Denver",
    "state": "Colorado",
    "postal_code": 80207,
    "longitude": -104.928343,
    "latitude": 39.75818024
  },
  {
    "id": 218,
    "name": "Lost Friend Brewing Company",
    "brewery_type": "micro",
    "street": "2458 Montebello Square Dr",
    "city": "Colorado Springs",
    "state": "Colorado",
    "postal_code": 80918,
    "website_url": "http://www.lostfriendbrewing.com",
    "longitude": -104.7823626,
    "latitude": 38.9082661
  },
  {
    "id": 219,
    "name": "Lost Highway Brewing",
    "brewery_type": "micro",
    "street": "12741 E Caley Ave Ste 140",
    "city": "Centennial",
    "state": "Colorado",
    "postal_code": 80111,
    "website_url": "http://www.losthighwaybrewing.com"
  },
  {
    "id": 220,
    "name": "Loveland Aleworks",
    "brewery_type": "micro",
    "street": "118 W 4th St",
    "city": "Loveland",
    "state": "Colorado",
    "postal_code": 80537,
    "website_url": "http://www.lovelandaleworks.com",
    "phone": 9704057465,
    "longitude": -105.0769672,
    "latitude": 40.39541012
  },
  {
    "id": 221,
    "name": "Lowdown Brewery + Kitchen",
    "brewery_type": "brewpub",
    "street": "800 N Lincoln St Unit 2",
    "city": "Denver",
    "state": "Colorado",
    "postal_code": 80203,
    "website_url": "http://www.lowdownbrewery.com",
    "phone": 7205248065
  },
  {
    "id": 222,
    "name": "Lumpy Ridge Brewing Co",
    "brewery_type": "micro",
    "street": "531 S St Vrain Ave",
    "city": "Estes Park",
    "state": "Colorado",
    "postal_code": 80517,
    "website_url": "http://www.lumpyridgebrewing.com",
    "phone": 9702351752,
    "longitude": -105.503658,
    "latitude": 40.367158
  },
  {
    "id": 223,
    "name": "Mad Jack's Mountain Brewery",
    "brewery_type": "micro",
    "street": "23 Main St",
    "city": "Bailey",
    "state": "Colorado",
    "postal_code": 80421,
    "website_url": "http://www.madjacksmountainbrewery.com",
    "phone": 3038162337,
    "longitude": -105.4774352,
    "latitude": 39.40651269
  },
  {
    "id": 224,
    "name": "Mahogany Ridge Brewery & Grill",
    "brewery_type": "brewpub",
    "street": "435 Lincoln Ave",
    "city": "Steamboat Springs",
    "state": "Colorado",
    "postal_code": 80477,
    "phone": 9708793773,
    "longitude": -106.8306883,
    "latitude": 40.48389236
  },
  {
    "id": 225,
    "name": "Main Street Brewery/Four Corners",
    "brewery_type": "brewpub",
    "street": "21 E Main St",
    "city": "Cortez",
    "state": "Colorado",
    "postal_code": 81321,
    "phone": 9705649112,
    "longitude": -108.5846644,
    "latitude": 37.3484244
  },
  {
    "id": 226,
    "name": "Mancos Brewing Company",
    "brewery_type": "brewpub",
    "street": "484 E. Frontage Rd",
    "city": "Mancos",
    "state": "Colorado",
    "postal_code": 81328,
    "website_url": "http://www.mancosbrewingcompany.com",
    "phone": 9705339761
  },
  {
    "id": 227,
    "name": "Manitou Brewing Company",
    "brewery_type": "brewpub",
    "street": "725 Manitou Ave",
    "city": "Manitou Springs",
    "state": "Colorado",
    "postal_code": 80829,
    "website_url": "http://www.manitou-brewing.com",
    "phone": 7192827709,
    "longitude": -104.9157413,
    "latitude": 38.8569869
  },
  {
    "id": 228,
    "name": "Mash Lab Brewing",
    "brewery_type": "micro",
    "street": "4395 Highland Meadows Pkwy",
    "city": "Windsor",
    "state": "Colorado",
    "postal_code": 80550,
    "website_url": "http://www.mashlabbrewing.com",
    "phone": 9702629225,
    "longitude": -104.9677936,
    "latitude": 40.4386998
  },
  {
    "id": 229,
    "name": "Maxline Brewing",
    "brewery_type": "micro",
    "street": "2724 McClelland Dr Ste 190",
    "city": "Fort Collins",
    "state": "Colorado",
    "postal_code": 80525,
    "website_url": "http://www.maxlinebrewing.com",
    "phone": 9702862855,
    "longitude": -105.0797489,
    "latitude": 40.55059012
  },
  {
    "id": 230,
    "name": "McClellan's Brewing Company",
    "brewery_type": "brewpub",
    "street": "1035 S Taft Hill Rd",
    "city": "Fort Collins",
    "state": "Colorado",
    "postal_code": 80521,
    "website_url": "http://www.mcclellansbrewingcompany.com",
    "phone": 9705688473,
    "longitude": -105.1151806,
    "latitude": 40.5737952
  },
  {
    "id": 231,
    "name": "MillerCoors Brewing Co - Golden",
    "brewery_type": "large",
    "street": "311 10th St",
    "city": "Golden",
    "state": "Colorado",
    "postal_code": 80401,
    "phone": 3032776246,
    "longitude": -105.219592,
    "latitude": 39.759495
  },
  {
    "id": 232,
    "name": "Mockery Brewing",
    "brewery_type": "micro",
    "street": "3501 Delgany St",
    "city": "Denver",
    "state": "Colorado",
    "postal_code": 80216,
    "website_url": "http://Mockerybrewing.com",
    "phone": 3039532058,
    "longitude": -104.9797349,
    "latitude": 39.7712389
  },
  {
    "id": 233,
    "name": "Moonlight Pizza",
    "brewery_type": "brewpub",
    "street": "242 F St",
    "city": "Salida",
    "state": "Colorado",
    "postal_code": 81201,
    "website_url": "http://www.moonlightpizza.biz",
    "phone": 7195394277,
    "longitude": -105.9931616,
    "latitude": 38.53502271
  },
  {
    "id": 234,
    "name": "Mother Tucker Brewery",
    "brewery_type": "micro",
    "street": "2360 E 120th Ave",
    "city": "Thornton",
    "state": "Colorado",
    "postal_code": 80233,
    "website_url": "http://mothertuckerbrewery.com",
    "phone": 3035659459,
    "longitude": -104.9582581,
    "latitude": 39.91402476
  },
  {
    "id": 235,
    "name": "Mountain Cowboy Brewing Company",
    "brewery_type": "brewpub",
    "street": "318 5th St",
    "city": "Frederick",
    "state": "Colorado",
    "postal_code": 80530,
    "website_url": "http://www.mountaincowboybrewing.com",
    "phone": 3039524433,
    "longitude": -104.9369796,
    "latitude": 40.09855473
  },
  {
    "id": 236,
    "name": "Mountain Sun Pub and Brewery",
    "brewery_type": "brewpub",
    "street": "1535 Pearl St",
    "city": "Boulder",
    "state": "Colorado",
    "postal_code": 80302,
    "website_url": "http://www.mountainsunpub.com",
    "phone": 3035460886,
    "longitude": -105.2752277,
    "latitude": 40.0190131
  },
  {
    "id": 237,
    "name": "Mountain Tap Brewery",
    "brewery_type": "brewpub",
    "street": "910 Yampa Street",
    "city": "Steamboat Springs",
    "state": "Colorado",
    "postal_code": 80487,
    "website_url": "http://www.mountaintapbrewery.com",
    "phone": 9708796646,
    "longitude": -106.8355071,
    "latitude": 40.4853039
  },
  {
    "id": 238,
    "name": "Mountain Toad Brewing",
    "brewery_type": "micro",
    "street": "900 Washington Ave",
    "city": "Golden",
    "state": "Colorado",
    "postal_code": 80401,
    "website_url": "http://mountaintoadbrewing.com",
    "phone": 7206383244,
    "longitude": -105.2242563,
    "latitude": 39.75807905
  },
  {
    "id": 239,
    "name": "Nano 108 Brewing Co",
    "brewery_type": "micro",
    "street": "2402 Waynoka Rd",
    "city": "Colorado Springs",
    "state": "Colorado",
    "postal_code": 80915,
    "website_url": "http://www.nano108brewing.com",
    "phone": 7195962337
  },
  {
    "id": 240,
    "name": "Never Summer Brewing Co",
    "brewery_type": "micro",
    "street": "62 E Agate Ave",
    "city": "Granby",
    "state": "Colorado",
    "postal_code": 80446,
    "phone": 9708870333,
    "longitude": -105.9415686,
    "latitude": 40.0855713
  },
  {
    "id": 241,
    "name": "New Belgium Brewing Co",
    "brewery_type": "regional",
    "street": "500 Linden St",
    "city": "Fort Collins",
    "state": "Colorado",
    "postal_code": 80524,
    "website_url": "http://www.newbelgium.com",
    "phone": 9702210524,
    "longitude": -105.0678422,
    "latitude": 40.59335825
  },
  {
    "id": 242,
    "name": "New Image Brewing Co",
    "brewery_type": "brewpub",
    "street": "5622 Yukon St",
    "city": "Arvada",
    "state": "Colorado",
    "postal_code": 80002,
    "website_url": "http://www.nibrewing.com",
    "phone": 7708811010,
    "longitude": -105.0824595,
    "latitude": 39.79938347
  },
  {
    "id": 243,
    "name": "New Planet Beer Co",
    "brewery_type": "contract",
    "street": "3980 Broadway St Ste 103 # 116",
    "city": "Boulder",
    "state": "Colorado",
    "postal_code": 80304,
    "website_url": "http://www.newplanetbeer.com",
    "phone": 3034994978
  },
  {
    "id": 244,
    "name": "New Terrain Brewing Company",
    "brewery_type": "micro",
    "street": "16401 Table Mountain Pkwy",
    "city": "Golden",
    "state": "Colorado",
    "postal_code": 80403,
    "website_url": "http://newterrainbrewing.com",
    "phone": 7206977848,
    "longitude": -105.1851036,
    "latitude": 39.77781975
  },
  {
    "id": 245,
    "name": "Novel Strand Brewing",
    "brewery_type": "micro",
    "street": "305 W 1st Ave",
    "city": "Denver",
    "state": "Colorado",
    "postal_code": 80223,
    "phone": 5189613217,
    "longitude": -104.9923182,
    "latitude": 39.718471
  },
  {
    "id": 246,
    "name": "Oasis Brewery",
    "brewery_type": "micro",
    "street": "3257 N Lowell Blvd",
    "city": "Denver",
    "state": "Colorado",
    "postal_code": 80211,
    "website_url": "http://www.oasisbeer.com",
    "phone": 3033174369
  },
  {
    "id": 247,
    "name": "Odd13 Brewing Inc",
    "brewery_type": "micro",
    "street": "301 E Simpson St",
    "city": "Lafayette",
    "state": "Colorado",
    "postal_code": 80026,
    "website_url": "http://www.odd13brewing.com",
    "phone": 3039974164,
    "longitude": -105.0878839,
    "latitude": 39.9983626
  },
  {
    "id": 248,
    "name": "Odd13 Production Facility",
    "brewery_type": "micro",
    "street": "505 Stacy Ct Ste D",
    "city": "Lafayette",
    "state": "Colorado",
    "postal_code": 80026
  },
  {
    "id": 249,
    "name": "Odell Brewing Co - Denver",
    "brewery_type": "micro",
    "street": "2945 Larimer St",
    "city": "Denver",
    "state": "Colorado",
    "postal_code": 80205,
    "longitude": -104.9810078,
    "latitude": 39.7621447
  },
  {
    "id": 250,
    "name": "Odell Brewing Co",
    "brewery_type": "regional",
    "street": "800 E Lincoln Ave",
    "city": "Fort Collins",
    "state": "Colorado",
    "postal_code": 80524,
    "website_url": "http://www.odellbrewing.com",
    "phone": 9704989070,
    "longitude": -105.0633327,
    "latitude": 40.5895239
  },
  {
    "id": 251,
    "name": "Odyssey Beerwerks",
    "brewery_type": "micro",
    "street": "5535 W 56th Ave Ste 107",
    "city": "Arvada",
    "state": "Colorado",
    "postal_code": 80002,
    "website_url": "http://www.odysseybeerwerks.com",
    "phone": 3034210772
  },
  {
    "id": 252,
    "name": "Old Colorado Brewing Co",
    "brewery_type": "micro",
    "street": "8121 First St.",
    "city": "Wellington",
    "state": "Colorado",
    "postal_code": 80549,
    "website_url": "http://www.oldcoloradobrewing.com",
    "phone": 9702172129
  },
  {
    "id": 253,
    "name": "Open Door Brewing Company",
    "brewery_type": "contract",
    "street": "2030 Ionosphere St Unit G",
    "city": "Longmont",
    "state": "Colorado",
    "postal_code": 80504,
    "website_url": "http://www.opendoorbrewco.com",
    "phone": 7205931401
  },
  {
    "id": 254,
    "name": "Oskar Blues Brewery - Lyons",
    "brewery_type": "brewpub",
    "street": "303 Main St",
    "city": "Lyons",
    "state": "Colorado",
    "postal_code": 80540,
    "website_url": "http://www.oskarblues.com",
    "phone": 3038236685,
    "longitude": -105.2676934,
    "latitude": 40.22451332
  },
  {
    "id": 255,
    "name": "Oskar Blues Brewery & Tasty Weasel Tap Room",
    "brewery_type": "regional",
    "street": "1800 Pike Rd Unit B",
    "city": "Longmont",
    "state": "Colorado",
    "postal_code": 80501,
    "website_url": "http://www.oskarblues.com",
    "phone": 3037760724
  },
  {
    "id": 256,
    "name": "Our Mutual Friend Brewing",
    "brewery_type": "micro",
    "street": "2810 Larimer St",
    "city": "Denver",
    "state": "Colorado",
    "postal_code": 80205,
    "website_url": "http://www.omfbeer.com",
    "phone": 3032963441,
    "longitude": -104.9825596,
    "latitude": 39.7605777
  },
  {
    "id": 257,
    "name": "Ouray Brewery",
    "brewery_type": "brewpub",
    "street": "607 Main St",
    "city": "Ouray",
    "state": "Colorado",
    "postal_code": 81427,
    "website_url": "http://www.ouraybrewery.com",
    "phone": 9703257388,
    "longitude": -107.6712878,
    "latitude": 38.0229071
  },
  {
    "id": 258,
    "name": "Ourayle House Brewery",
    "brewery_type": "micro",
    "street": "703 Main St",
    "city": "Ouray",
    "state": "Colorado",
    "postal_code": 81427,
    "phone": 9709031824,
    "longitude": -107.6714048,
    "latitude": 38.02402041
  },
  {
    "id": 259,
    "name": "Outer Range Brewing Co",
    "brewery_type": "micro",
    "street": "182 Lusher Court #2",
    "city": "Frisco",
    "state": "Colorado",
    "postal_code": 80443,
    "website_url": "http://www.outerrange.com",
    "phone": 9703683101,
    "longitude": -106.0989298,
    "latitude": 39.5892615
  },
  {
    "id": 260,
    "name": "Pagosa Brewing & Grill",
    "brewery_type": "brewpub",
    "street": "118 N Pagosa Blvd",
    "city": "Pagosa Springs",
    "state": "Colorado",
    "postal_code": 81147,
    "website_url": "http://www.pagosabrewing.com",
    "phone": 9707312739
  },
  {
    "id": 261,
    "name": "Palisade Brewing Company",
    "brewery_type": "brewpub",
    "street": "200 Peach Ave",
    "city": "Palisade",
    "state": "Colorado",
    "postal_code": 81526,
    "website_url": "http://www.palisadebrewingcompany.com",
    "phone": 9704641462,
    "longitude": -108.3542553,
    "latitude": 39.11109565
  },
  {
    "id": 262,
    "name": "Paonia United Brewing Company",
    "brewery_type": "micro",
    "street": "325 Grand Ave",
    "city": "Paonia",
    "state": "Colorado",
    "postal_code": 81428,
    "website_url": "http://www.paoniaunitedbrew.com",
    "phone": 9704177759,
    "longitude": -107.5976969,
    "latitude": 38.86899455
  },
  {
    "id": 263,
    "name": "Paradox Beer Co",
    "brewery_type": "micro",
    "street": "10 Buffalo Ct",
    "city": "Divide",
    "state": "Colorado",
    "postal_code": 80814,
    "website_url": "http://www.paradoxbeercompany.com",
    "longitude": -105.1550486,
    "latitude": 38.94440915
  },
  {
    "id": 264,
    "name": "Parts & Labor Brewing Company",
    "brewery_type": "brewpub",
    "street": "402 Main St Unit B",
    "city": "Sterling",
    "state": "Colorado",
    "postal_code": 80751,
    "website_url": "http://www.partsandlaborbrewing.com",
    "phone": 9702228221
  },
  {
    "id": 265,
    "name": "Pdub Brewing Co",
    "brewery_type": "brewpub",
    "street": "187 S Purcell Blvd",
    "city": "Pueblo",
    "state": "Colorado",
    "postal_code": 81007,
    "website_url": "http://www.pdubbrewing.com",
    "phone": 7196478864,
    "longitude": -104.7084175,
    "latitude": 38.3164023
  },
  {
    "id": 266,
    "name": "Peak To Peak Tap & Brew",
    "brewery_type": "brewpub",
    "street": "16701 E Iliff Ave",
    "city": "Aurora",
    "state": "Colorado",
    "postal_code": 80013,
    "website_url": "http://www.peakbrews.com",
    "phone": 7204468714,
    "longitude": -104.8366181,
    "latitude": 39.6750535
  },
  {
    "id": 267,
    "name": "Peak To Peak Tap & Brew",
    "brewery_type": "micro",
    "street": "9735 E Colfax Ave",
    "city": "Aurora",
    "state": "Colorado",
    "postal_code": 80010,
    "longitude": -104.8505299,
    "latitude": 39.7402157
  },
  {
    "id": 268,
    "name": "Peaks N Pines Brewing Company",
    "brewery_type": "micro",
    "street": "4005 Tutt Blvd",
    "city": "Colorado Springs",
    "state": "Colorado",
    "postal_code": 80922,
    "website_url": "http://www.peaksnpinesbrewery.com",
    "phone": 7193586758,
    "longitude": -104.7146045,
    "latitude": 38.88965993
  },
  {
    "id": 269,
    "name": "Periodic Brewing LLC",
    "brewery_type": "brewpub",
    "street": "115 E 7th St",
    "city": "Leadville",
    "state": "Colorado",
    "postal_code": 80461,
    "website_url": "http://www.periodicbrewing.com",
    "phone": 7203168144,
    "longitude": -106.2917767,
    "latitude": 39.2496419
  },
  {
    "id": 270,
    "name": "Periodic Brewing Northglenn",
    "brewery_type": "micro",
    "street": "2100 E 112th Ave",
    "city": "Northglenn",
    "state": "Colorado",
    "postal_code": 80233,
    "phone": 7208641012,
    "longitude": -104.9619495,
    "latitude": 39.89940226
  },
  {
    "id": 271,
    "name": "Phantom Canyon Brewing Co",
    "brewery_type": "brewpub",
    "street": "2 E Pikes Peak Ave",
    "city": "Colorado Springs",
    "state": "Colorado",
    "postal_code": 80903,
    "website_url": "http://www.phantomcanyon.com",
    "phone": 7196352800,
    "longitude": -104.8249314,
    "latitude": 38.83423935
  },
  {
    "id": 272,
    "name": "Pikes Peak Brewing",
    "brewery_type": "micro",
    "street": "1756 Lake Woodmoor Dr",
    "city": "Monument",
    "state": "Colorado",
    "postal_code": 80132,
    "website_url": "http://www.pikespeakbrewing.com",
    "phone": 7192084098
  },
  {
    "id": 273,
    "name": "Pilothouse Brewing Company",
    "brewery_type": "micro",
    "street": "4233 S Buckley Rd",
    "city": "Aurora",
    "state": "Colorado",
    "postal_code": 80013,
    "website_url": "http://www.pilothousebrewco.com",
    "phone": 3039944971,
    "longitude": -104.7915508,
    "latitude": 39.63993222
  },
  {
    "id": 274,
    "name": "Pints Pub Brewery and Freehouse",
    "brewery_type": "brewpub",
    "street": "221 W 13th Ave",
    "city": "Denver",
    "state": "Colorado",
    "postal_code": 80204,
    "website_url": "http://www.pintspub.com",
    "phone": 3035347543,
    "longitude": -104.9908538,
    "latitude": 39.737018
  },
  {
    "id": 275,
    "name": "Pitchers Sports Restaurant and Brewery",
    "brewery_type": "brewpub",
    "street": "1100 W Drake Rd",
    "city": "Fort Collins",
    "state": "Colorado",
    "postal_code": 80526,
    "website_url": "http://www.pitchersbrewery.com",
    "phone": 9704935374,
    "longitude": -105.0973959,
    "latitude": 40.55306785
  },
  {
    "id": 276,
    "name": "Platt Park Brewing Co.",
    "brewery_type": "micro",
    "street": "1875 S Pearl St",
    "city": "Denver",
    "state": "Colorado",
    "postal_code": 80210,
    "website_url": "http://www.plattparkbrewing.com",
    "phone": 3039686674,
    "longitude": -104.9805967,
    "latitude": 39.68267416
  },
  {
    "id": 277,
    "name": "Primitive Beer LLC",
    "brewery_type": "micro",
    "street": "2025 Ionosphere St Unit 101",
    "city": "Longmont",
    "state": "Colorado",
    "postal_code": 80504,
    "website_url": "http://www.Primitive.beer",
    "phone": 9142557436
  },
  {
    "id": 278,
    "name": "Prost Brewing",
    "brewery_type": "micro",
    "street": "2540 19th St",
    "city": "Denver",
    "state": "Colorado",
    "postal_code": 80211,
    "website_url": "http://www.prostbrewing.com",
    "phone": 3037291175,
    "longitude": -105.0067758,
    "latitude": 39.761363
  },
  {
    "id": 279,
    "name": "Pug Ryan's Brewing Company",
    "brewery_type": "brewpub",
    "street": "104 Village Pl",
    "city": "Dillon",
    "state": "Colorado",
    "postal_code": 80435,
    "website_url": "http://www.pugryans.com",
    "phone": 9704682145,
    "longitude": -106.0467598,
    "latitude": 39.62832675
  },
  {
    "id": 280,
    "name": "Pumphouse Brewery and Restaurant",
    "brewery_type": "brewpub",
    "street": "540 Main St",
    "city": "Longmont",
    "state": "Colorado",
    "postal_code": 80501,
    "website_url": "http://www.pumphousebrewery.com",
    "phone": 3037020881,
    "longitude": -105.1020999,
    "latitude": 40.1687619
  },
  {
    "id": 281,
    "name": "Purpose Brewing and Cellars",
    "brewery_type": "micro",
    "street": "4025 S Mason St Unit C",
    "city": "Fort Collins",
    "state": "Colorado",
    "postal_code": 80525,
    "website_url": "http://www.purposebrewing.com",
    "phone": 9703774107
  },
  {
    "id": 282,
    "name": "Rails End Beer Company",
    "brewery_type": "micro",
    "street": "11625 Reed Ct",
    "city": "Broomfield",
    "state": "Colorado",
    "postal_code": 80020,
    "website_url": "http://www.railsendbeerco.com",
    "phone": 3033538121,
    "longitude": -105.0750302,
    "latitude": 39.9084879
  },
  {
    "id": 283,
    "name": "Rally King Brewing",
    "brewery_type": "micro",
    "street": "1624 S Lemay Ave Unit 4",
    "city": "Fort Collins",
    "state": "Colorado",
    "postal_code": 80525,
    "website_url": "http://www.rallykingbrewing.com",
    "phone": 9705688936
  },
  {
    "id": 284,
    "name": "Ratio Beerworks",
    "brewery_type": "micro",
    "street": "2920 Larimer St",
    "city": "Denver",
    "state": "Colorado",
    "postal_code": 80205,
    "website_url": "http://ratiobeerworks.com",
    "phone": 3102669264,
    "longitude": -104.9812181,
    "latitude": 39.7615104
  },
  {
    "id": 285,
    "name": "Red Leg Brewing Company",
    "brewery_type": "micro",
    "street": "4630 Forge Rd Ste B",
    "city": "Colorado Springs",
    "state": "Colorado",
    "postal_code": 80907,
    "website_url": "http://www.redlegbrewingco.com",
    "phone": 7195983776
  },
  {
    "id": 286,
    "name": "Red Mountain Brewing",
    "brewery_type": "brewpub",
    "street": "400 Main St",
    "city": "Ouray",
    "state": "Colorado",
    "postal_code": 81427,
    "website_url": "http://www.redmountainbrewingouray.com",
    "phone": 9703259858,
    "longitude": -107.671615,
    "latitude": 38.020713
  },
  {
    "id": 287,
    "name": "Red Truck Beer Company Ltd.",
    "brewery_type": "micro",
    "street": "1020 E Lincoln Ave",
    "city": "Fort Collins",
    "state": "Colorado",
    "postal_code": 80524,
    "phone": 6046824733,
    "longitude": -105.0584895,
    "latitude": 40.58916845
  },
  {
    "id": 288,
    "name": "Redgarden Brewery",
    "brewery_type": "brewpub",
    "street": "1700 Dogwood St",
    "city": "Louisville",
    "state": "Colorado",
    "postal_code": 80027,
    "website_url": "http://www.redgardenbrewery.com",
    "phone": 3036199601,
    "longitude": -105.1138827,
    "latitude": 39.9674475
  },
  {
    "id": 289,
    "name": "Renegade Brewing Company",
    "brewery_type": "micro",
    "street": "918 W 1st Ave",
    "city": "Denver",
    "state": "Colorado",
    "postal_code": 80223,
    "website_url": "http://renegadebrewing.com",
    "phone": 3035345407,
    "longitude": -104.9992637,
    "latitude": 39.71831392
  },
  {
    "id": 290,
    "name": "Renegade Brewing Company - Production",
    "brewery_type": "micro",
    "street": "918 W 1st Ave",
    "city": "Denver",
    "state": "Colorado",
    "postal_code": 80223,
    "website_url": "http://www.renegadebrewing.com",
    "phone": 7204014089,
    "longitude": -104.9992637,
    "latitude": 39.71831392
  },
  {
    "id": 291,
    "name": "Resolute Brewing Company",
    "brewery_type": "micro",
    "street": "7286 S Yosemite St Ste 110",
    "city": "Centennial",
    "state": "Colorado",
    "postal_code": 80112,
    "website_url": "http://www.resolutebrewingco.com",
    "phone": 7207221238
  },
  {
    "id": 292,
    "name": "Riff Raff Brewing",
    "brewery_type": "brewpub",
    "street": "274 Pagosa St",
    "city": "Pagosa Springs",
    "state": "Colorado",
    "postal_code": 81147,
    "website_url": "http://www.riffraffbrewing.com",
    "phone": 9702644677,
    "longitude": -107.0081546,
    "latitude": 37.26874006
  },
  {
    "id": 293,
    "name": "River North Brewery",
    "brewery_type": "micro",
    "street": "6021 Washington St Unit A",
    "city": "Denver",
    "state": "Colorado",
    "postal_code": 80216,
    "website_url": "http://www.rivernorthbrewery.com",
    "phone": 7858656057
  },
  {
    "id": 294,
    "name": "Roaring Fork Beer Company",
    "brewery_type": "proprietor",
    "street": "1941 Dolores Way",
    "city": "Carbondale",
    "state": "Colorado",
    "postal_code": 81623,
    "website_url": "http://www.roaringforkbeerco.com",
    "phone": 9705105934
  },
  {
    "id": 295,
    "name": "Rock Bottom Brewery - Centerra Promenade",
    "brewery_type": "brewpub",
    "street": "6025 Sky Pond Dr",
    "city": "Loveland",
    "state": "Colorado",
    "postal_code": 80538,
    "website_url": "http://www.rockbottom.com",
    "phone": 9706222077,
    "longitude": -104.990385,
    "latitude": 40.418114
  },
  {
    "id": 296,
    "name": "Rock Bottom Brewery - Colorado Springs",
    "brewery_type": "brewpub",
    "street": "3316 Cinema Point Dr",
    "city": "Colorado Springs",
    "state": "Colorado",
    "postal_code": 80922,
    "website_url": "http://www.rockbottom.com",
    "phone": 7195503586,
    "longitude": -104.718194,
    "latitude": 38.8811909
  },
  {
    "id": 297,
    "name": "Rock Bottom Brewery - Denver",
    "brewery_type": "brewpub",
    "street": "1001 16th St Ste 100",
    "city": "Denver",
    "state": "Colorado",
    "postal_code": 80265,
    "website_url": "http://www.rockbottom.com",
    "phone": 3035347616
  },
  {
    "id": 298,
    "name": "Rock Bottom Brewery - Englewood",
    "brewery_type": "brewpub",
    "street": "9627 E County Line Rd",
    "city": "Englewood",
    "state": "Colorado",
    "postal_code": 80112,
    "website_url": "http://www.rockbottom.com",
    "phone": 3037929090
  },
  {
    "id": 299,
    "name": "Rock Bottom Brewery - Highlands Ranch",
    "brewery_type": "brewpub",
    "street": "1505 Park Central Dr",
    "city": "Highlands Ranch",
    "state": "Colorado",
    "postal_code": 80129
  },
  {
    "id": 300,
    "name": "Rock Bottom Brewery - Orchard Cntr",
    "brewery_type": "brewpub",
    "street": "14694 Orchard Pkwy Unit 400",
    "city": "Westminster",
    "state": "Colorado",
    "postal_code": 80023,
    "website_url": "http://www.rockbottom.com",
    "phone": 3032551625
  },
  {
    "id": 301,
    "name": "Rock Bottom Brewery - Westminster",
    "brewery_type": "brewpub",
    "street": "10633 Westminster Blvd Unit 900",
    "city": "Westminster",
    "state": "Colorado",
    "postal_code": 80020,
    "website_url": "http://www.rockbottom.com",
    "phone": 7205660198
  },
  {
    "id": 302,
    "name": "Rock Cut Brewing Company",
    "brewery_type": "micro",
    "street": "390 W Riverside Dr",
    "city": "Estes Park",
    "state": "Colorado",
    "postal_code": 80517,
    "longitude": -105.5232105,
    "latitude": 40.37237825
  },
  {
    "id": 303,
    "name": "Rockslide Brewing Co",
    "brewery_type": "brewpub",
    "street": "401 Main St",
    "city": "Grand Junction",
    "state": "Colorado",
    "postal_code": 81501,
    "website_url": "http://www.rockslidebrewpub.com",
    "phone": 9702419311,
    "longitude": -108.5659153,
    "latitude": 39.0670106
  },
  {
    "id": 304,
    "name": "Rocky Mountain Brewery",
    "brewery_type": "micro",
    "street": "625 Paonia St",
    "city": "Colorado Springs",
    "state": "Colorado",
    "postal_code": 80915,
    "website_url": "http://www.rockymountainbrews.com",
    "phone": 7195281651
  },
  {
    "id": 305,
    "name": "Rocky Mountain Taphouse, LLC",
    "brewery_type": "micro",
    "street": "3050 67th Ave Ste 104",
    "city": "Greeley",
    "state": "Colorado",
    "postal_code": 80634,
    "website_url": "http://www.rockymountaintaphouse.com",
    "phone": 9703026551,
    "longitude": -104.7859342,
    "latitude": 40.387892
  },
  {
    "id": 306,
    "name": "Rockyard Brewing Company",
    "brewery_type": "brewpub",
    "street": "880 Castleton Rd",
    "city": "Castle Rock",
    "state": "Colorado",
    "postal_code": 80109,
    "website_url": "http://www.rockyard.com",
    "phone": 3038149273,
    "longitude": -104.8723394,
    "latitude": 39.4096188
  },
  {
    "id": 307,
    "name": "Royal Gorge Brew Pub",
    "brewery_type": "brewpub",
    "street": "413 Main St",
    "city": "Canon City",
    "state": "Colorado",
    "postal_code": 81212,
    "website_url": "http://www.royalgorgebrewing.com",
    "phone": 7193454141,
    "longitude": -105.2418113,
    "latitude": 38.44010539
  },
  {
    "id": 308,
    "name": "Rustica Brewing Company",
    "brewery_type": "micro",
    "street": "2370 S Kalamath St Unit A",
    "city": "Denver",
    "state": "Colorado",
    "postal_code": 80223,
    "website_url": "http://www.rusticabrewery.com",
    "phone": 7203979682
  },
  {
    "id": 309,
    "name": "Saint Patrick's Brewing Company",
    "brewery_type": "micro",
    "street": "2842 W Bowles Ave",
    "city": "Littleton",
    "state": "Colorado",
    "postal_code": 80120,
    "website_url": "http://www.stpatricksbrewco.com",
    "phone": 3037187575,
    "longitude": -105.024584,
    "latitude": 39.6125875
  },
  {
    "id": 310,
    "name": "San Luis Valley Brewing Co",
    "brewery_type": "brewpub",
    "street": "631 Main St",
    "city": "Alamosa",
    "state": "Colorado",
    "postal_code": 81101,
    "website_url": "http://www.slvbrewco.com",
    "phone": 7195872337,
    "longitude": -105.8742898,
    "latitude": 37.4681813
  },
  {
    "id": 311,
    "name": "Sanitas Brewing Co",
    "brewery_type": "micro",
    "street": "3550 Frontier Ave Ste A",
    "city": "Boulder",
    "state": "Colorado",
    "postal_code": 80301,
    "website_url": "http://www.sanitasbrewing.com/",
    "phone": 2152667762
  },
  {
    "id": 312,
    "name": "Seedstock Brewery",
    "brewery_type": "micro",
    "street": "3610 W Colfax Ave",
    "city": "Denver",
    "state": "Colorado",
    "postal_code": 80204,
    "website_url": "http://www.seedstockbrewery.com",
    "phone": 7204767831,
    "longitude": -105.0348519,
    "latitude": 39.74025203
  },
  {
    "id": 313,
    "name": "Shamrock Brewing Company",
    "brewery_type": "brewpub",
    "street": "108 W 3rd St",
    "city": "Pueblo",
    "state": "Colorado",
    "postal_code": 81003,
    "website_url": "http://www.shamrockbrewing.com",
    "phone": 7195429974,
    "longitude": -104.6078644,
    "latitude": 38.26965302
  },
  {
    "id": 314,
    "name": "Sherpa Brewery Pvt. Ltd.",
    "brewery_type": "contract",
    "street": "1708 W 17th Dr",
    "city": "Golden",
    "state": "Colorado",
    "postal_code": 80401,
    "longitude": -105.1963424,
    "latitude": 39.7443713
  },
  {
    "id": 315,
    "name": "Shoes & Brews",
    "brewery_type": "micro",
    "street": "63 S Pratt Pkwy Unit B",
    "city": "Longmont",
    "state": "Colorado",
    "postal_code": 80501,
    "website_url": "http://www.shoesbrews.com",
    "phone": 7203404290
  },
  {
    "id": 316,
    "name": "SKA Brewing",
    "brewery_type": "regional",
    "street": "225 Girard, Bodo Park",
    "city": "Durango",
    "state": "Colorado",
    "postal_code": 81303
  },
  {
    "id": 317,
    "name": "Sleeping Giant Brewing Company",
    "brewery_type": "micro",
    "street": "2500 W 5th Ave",
    "city": "Denver",
    "state": "Colorado",
    "postal_code": 80204,
    "website_url": "http://www.sleepinggiantbrewing.com",
    "longitude": -105.0167729,
    "latitude": 39.7237975
  },
  {
    "id": 318,
    "name": "Smiling Toad Brewery",
    "brewery_type": "micro",
    "street": "1757 S 8th St Ste 100",
    "city": "Colorado Springs",
    "state": "Colorado",
    "postal_code": 80905,
    "website_url": "http://www.smilingtoadbrewery.com",
    "phone": 7194182936
  },
  {
    "id": 319,
    "name": "Smuggler's Brewpub",
    "brewery_type": "brewpub",
    "street": "225 South Pine St",
    "city": "Telluride",
    "state": "Colorado",
    "postal_code": 81435,
    "website_url": "http://www.smugglersbrewpub.com",
    "phone": 9707285620,
    "longitude": -107.8114274,
    "latitude": 37.9358018
  },
  {
    "id": 320,
    "name": "Snowbank Brewing",
    "brewery_type": "micro",
    "street": "225 N Lemay Ave Ste 1",
    "city": "Fort Collins",
    "state": "Colorado",
    "postal_code": 80524,
    "website_url": "http://www.snowbank.beer",
    "phone": 9709995658
  },
  {
    "id": 321,
    "name": "SomePlace Else Brewery",
    "brewery_type": "micro",
    "street": "6425 W 52nd Ave Unit 6/6B",
    "city": "Arvada",
    "state": "Colorado",
    "postal_code": 80002,
    "phone": 7205124162
  },
  {
    "id": 322,
    "name": "Something Brewery",
    "brewery_type": "micro",
    "street": "117 N Main St Unit A",
    "city": "Brighton",
    "state": "Colorado",
    "postal_code": 80601,
    "website_url": "http://www.somethingbrewery.com",
    "phone": 7206601343
  },
  {
    "id": 323,
    "name": "Soul Squared Brewing Co.",
    "brewery_type": "micro",
    "street": "6412 N County Road 15",
    "city": "Fort Collins",
    "state": "Colorado",
    "postal_code": 80524,
    "website_url": "http://www.soulsquaredbrewing.com"
  },
  {
    "id": 324,
    "name": "Soulcraft Brewing",
    "brewery_type": "micro",
    "street": "248 W US Highway 50",
    "city": "Salida",
    "state": "Colorado",
    "postal_code": 81201,
    "website_url": "http://www.soulcraftbeer.com",
    "phone": 7195395428
  },
  {
    "id": 325,
    "name": "South Park Brewing",
    "brewery_type": "micro",
    "street": "297 1/2 US Hwy 285",
    "city": "Fairplay",
    "state": "Colorado",
    "postal_code": 80440,
    "website_url": "http://www.southparkbrewingco.com",
    "phone": 7198361932
  },
  {
    "id": 326,
    "name": "Southern Sun Pub and Brewery",
    "brewery_type": "brewpub",
    "street": "627 S Broadway St",
    "city": "Boulder",
    "state": "Colorado",
    "postal_code": 80305,
    "website_url": "http://www.mountainsunpub.com",
    "phone": 3035430886
  },
  {
    "id": 327,
    "name": "Spangalang Brewery",
    "brewery_type": "micro",
    "street": "2736 Welton St Ste 102",
    "city": "Denver",
    "state": "Colorado",
    "postal_code": 80205,
    "website_url": "http://www.spangalangbrewery.com",
    "phone": 3032971276,
    "longitude": -104.9770361,
    "latitude": 39.7552227
  },
  {
    "id": 328,
    "name": "Spice Trade Brewing",
    "brewery_type": "brewpub",
    "street": "7803 Ralston Rd",
    "city": "Arvada",
    "state": "Colorado",
    "postal_code": 80002,
    "website_url": "http://www.spicetradebrewing.com",
    "phone": 3034319000,
    "longitude": -105.0841731,
    "latitude": 39.802334
  },
  {
    "id": 329,
    "name": "Square Peg Brewerks",
    "brewery_type": "micro",
    "street": "625 Main St",
    "city": "Alamosa",
    "state": "Colorado",
    "postal_code": 81101,
    "website_url": "http://www.squarepegbrewerks.com",
    "phone": 7195807472,
    "longitude": -105.8742898,
    "latitude": 37.4681813
  },
  {
    "id": 330,
    "name": "Station 26 Brewing Co",
    "brewery_type": "micro",
    "street": "7045 E 38th Ave",
    "city": "Denver",
    "state": "Colorado",
    "postal_code": 80207,
    "website_url": "http://www.station26brewing.co",
    "longitude": -104.9062608,
    "latitude": 39.76935335
  },
  {
    "id": 331,
    "name": "Steamworks Brewing Co",
    "brewery_type": "brewpub",
    "street": "801 E 2nd Ave",
    "city": "Durango",
    "state": "Colorado",
    "postal_code": 81301,
    "website_url": "http://www.steamworksbrewing.com",
    "phone": 9702599200,
    "longitude": -107.87979,
    "latitude": 37.272176
  },
  {
    "id": 332,
    "name": "Stein Brewing Company",
    "brewery_type": "micro",
    "street": "2516 49th St",
    "city": "Boulder",
    "state": "Colorado",
    "postal_code": 80301,
    "website_url": "http://www.jwellsbrewery.com",
    "phone": 3033960384,
    "longitude": -105.2378323,
    "latitude": 40.0238083
  },
  {
    "id": 333,
    "name": "Storm Peak Brewing Company",
    "brewery_type": "micro",
    "street": "1885 Elk River Plz Unit 4",
    "city": "Steamboat Springs",
    "state": "Colorado",
    "postal_code": 80487,
    "website_url": "http://www.stormpeakbrewing.com",
    "phone": 9708791999
  },
  {
    "id": 334,
    "name": "Storybook Brewing",
    "brewery_type": "micro",
    "street": "3121 N El Paso St Ste A",
    "city": "Colorado Springs",
    "state": "Colorado",
    "postal_code": 80907,
    "website_url": "http://www.storybookbrewing.com",
    "phone": 7196336266
  },
  {
    "id": 335,
    "name": "Strange Craft Beer Co",
    "brewery_type": "micro",
    "street": "1330 Zuni St Ste M",
    "city": "Denver",
    "state": "Colorado",
    "postal_code": 80204,
    "website_url": "http://www.strangecraft.com",
    "phone": 7209852337
  },
  {
    "id": 336,
    "name": "Suds Brothers Brewing Co #2",
    "brewery_type": "brewpub",
    "street": "127 E Aspen Ave",
    "city": "Fruita",
    "state": "Colorado",
    "postal_code": 81521,
    "website_url": "http://www.sudsbrothers2fruita.com",
    "phone": 9708581571,
    "longitude": -108.7326881,
    "latitude": 39.1591622
  },
  {
    "id": 337,
    "name": "Telluride Brewing Co",
    "brewery_type": "micro",
    "street": "156 DEF Society Drive",
    "city": "Telluride",
    "state": "Colorado",
    "postal_code": 81435,
    "website_url": "http://www.telluridebrewingco.com",
    "phone": 9707285094
  },
  {
    "id": 338,
    "name": "The Bakers' Brewery",
    "brewery_type": "brewpub",
    "street": "531 Silverthorne Ln",
    "city": "Silverthorne",
    "state": "Colorado",
    "postal_code": 80498,
    "website_url": "http://www.thebakersbrewery.com",
    "phone": 9704680170,
    "longitude": -106.0672002,
    "latitude": 39.62976193
  },
  {
    "id": 339,
    "name": "The Brew On Broadway (The BoB)",
    "brewery_type": "micro",
    "street": "3445 S Broadway",
    "city": "Englewood",
    "state": "Colorado",
    "postal_code": 80113,
    "website_url": "http://www.thebrewonbroadway.com",
    "phone": 3037815665,
    "longitude": -104.98772,
    "latitude": 39.65416792
  },
  {
    "id": 340,
    "name": "The Grateful Gnome Sandwich Shoppe and Brewery",
    "brewery_type": "brewpub",
    "street": "4369 Stuart St",
    "city": "Denver",
    "state": "Colorado",
    "postal_code": 80212,
    "website_url": "http://www.thegratefulgnome.com",
    "phone": 7205986863,
    "longitude": -105.0432655,
    "latitude": 39.7764426
  },
  {
    "id": 341,
    "name": "The Intrepid Sojourner Beer Project",
    "brewery_type": "micro",
    "street": "925 W 8th Ave",
    "city": "Denver",
    "state": "Colorado",
    "postal_code": 80204,
    "website_url": "http://sojournerbeers.com",
    "phone": 8122498792,
    "longitude": -104.9993865,
    "latitude": 39.7291386
  },
  {
    "id": 342,
    "name": "The Larimer Beer Company",
    "brewery_type": "contract",
    "street": "3620 Newport St",
    "city": "Denver",
    "state": "Colorado",
    "postal_code": 80207,
    "website_url": "http://www.thelarimer.com",
    "phone": 7205076369,
    "longitude": -104.9093487,
    "latitude": 39.76773768
  },
  {
    "id": 343,
    "name": "The Peak Brewing Company",
    "brewery_type": "brewpub",
    "street": "78491 US-40",
    "city": "Winter Park",
    "state": "Colorado",
    "postal_code": 80482,
    "website_url": "http://www.thepeakwp.com",
    "phone": 9707267951
  },
  {
    "id": 344,
    "name": "The Post Brewing Co",
    "brewery_type": "brewpub",
    "street": "2027 13th St",
    "city": "Boulder",
    "state": "Colorado",
    "postal_code": 80302,
    "website_url": "http://www.postbrewing.com",
    "phone": 7203723341,
    "longitude": -105.2788942,
    "latitude": 40.01847649
  },
  {
    "id": 345,
    "name": "The Post Brewing Co",
    "brewery_type": "brewpub",
    "street": "105 W Emma St",
    "city": "Lafayette",
    "state": "Colorado",
    "postal_code": 80026,
    "website_url": "http://www.postbrewing.com",
    "phone": 3035932066,
    "longitude": -105.0913165,
    "latitude": 39.99461105
  },
  {
    "id": 346,
    "name": "The Sandlot Brewery At Coors Field",
    "brewery_type": "large",
    "street": "2145 Blake St",
    "city": "Denver",
    "state": "Colorado",
    "postal_code": 80205,
    "website_url": "http://www.millercoors.com",
    "phone": 3032981587,
    "longitude": -104.9926484,
    "latitude": 39.75571836
  },
  {
    "id": 347,
    "name": "Thirsty Monk Pub Brewery",
    "brewery_type": "micro",
    "street": "1604 E 17th Ave",
    "city": "Denver",
    "state": "Colorado",
    "postal_code": 80218,
    "longitude": -104.9682508,
    "latitude": 39.743154
  },
  {
    "id": 348,
    "name": "Three Barrel Brewing Co",
    "brewery_type": "brewpub",
    "street": "475 Grand Ave",
    "city": "del Norte",
    "state": "Colorado",
    "postal_code": 81132,
    "website_url": "http://www.threebarrelbrew.com",
    "phone": 7196570681,
    "longitude": -106.3567109,
    "latitude": 37.6790756
  },
  {
    "id": 349,
    "name": "Three Four Beer Company",
    "brewery_type": "brewpub",
    "street": "829 S Shields St",
    "city": "Fort Collins",
    "state": "Colorado",
    "postal_code": 80521,
    "website_url": "http://www.threefourbeerco.com",
    "phone": 9706821560,
    "longitude": -105.0959634,
    "latitude": 40.5726176
  },
  {
    "id": 350,
    "name": "Tilted Barrel Brew Pub",
    "brewery_type": "contract",
    "street": "110 E 29th St",
    "city": "Loveland",
    "state": "Colorado",
    "postal_code": 80538,
    "website_url": "http://www.tiltedbarrelbrewpub.com",
    "phone": 9706198950,
    "longitude": -105.0773167,
    "latitude": 40.42158016
  },
  {
    "id": 351,
    "name": "Tivoli Brewing Company",
    "brewery_type": "micro",
    "street": "900 Auraria Pkwy Unit 240",
    "city": "Denver",
    "state": "Colorado",
    "postal_code": 80204,
    "phone": 3035826039
  },
  {
    "id": 352,
    "name": "Tommyknocker Brewery & Pub",
    "brewery_type": "micro",
    "street": "1401 Miner St",
    "city": "Idaho Springs",
    "state": "Colorado",
    "postal_code": 80452,
    "website_url": "http://www.tommyknocker.com",
    "phone": 3035674419,
    "longitude": -105.5176775,
    "latitude": 39.7417505
  },
  {
    "id": 353,
    "name": "Trinity Brewing",
    "brewery_type": "brewpub",
    "street": "1466 Garden of The Gods Rd Ste 184",
    "city": "Colorado Springs",
    "state": "Colorado",
    "postal_code": 80907,
    "website_url": "http://www.trinitybrew.com",
    "phone": 7196340029
  },
  {
    "id": 354,
    "name": "TRVE Brewing Co",
    "brewery_type": "micro",
    "street": "2600 W. 2nd Ave Unit 8",
    "city": "Denver",
    "state": "Colorado",
    "postal_code": 80219,
    "website_url": "http://trvebrewing.com",
    "phone": 3033511021
  },
  {
    "id": 355,
    "name": "TRVE Brewing Co. - The Acid Temple",
    "brewery_type": "micro",
    "street": "2600 W. 2nd Ave Unit 8",
    "city": "Denver",
    "state": "Colorado",
    "postal_code": 80219,
    "phone": 3033511021
  },
  {
    "id": 356,
    "name": "Tumbleweed Brewing and Wine Company",
    "brewery_type": "brewpub",
    "street": "124 S Main St",
    "city": "Yuma",
    "state": "Colorado",
    "postal_code": 80759,
    "website_url": "http://www.tumbleweedbrewing.com",
    "phone": 9706302818,
    "longitude": -102.7238865,
    "latitude": 40.12462759
  },
  {
    "id": 357,
    "name": "Twisted Pine Brewing Co",
    "brewery_type": "brewpub",
    "street": "3201 Walnut St Ste A",
    "city": "Boulder",
    "state": "Colorado",
    "postal_code": 80301,
    "website_url": "http://www.twistedpinebrewing.com",
    "phone": 3037869270
  },
  {
    "id": 358,
    "name": "Two Rascals Brewing Co",
    "brewery_type": "micro",
    "street": "147 N 1st St",
    "city": "Montrose",
    "state": "Colorado",
    "postal_code": 81401,
    "website_url": "http://www.tworascalsbrewing.com",
    "phone": 9702498689,
    "longitude": -107.8800003,
    "latitude": 38.4788199
  },
  {
    "id": 359,
    "name": "Two22 Brew",
    "brewery_type": "micro",
    "street": "4550 S Reservoir Rd",
    "city": "Centennial",
    "state": "Colorado",
    "postal_code": 80015,
    "website_url": "http://www.two22brew.com",
    "phone": 7203289038,
    "longitude": -104.7601698,
    "latitude": 39.63429093
  },
  {
    "id": 360,
    "name": "Upslope Brewing Company - Flatiron Park",
    "brewery_type": "micro",
    "street": "1898 S Flatiron Ct Ste 110",
    "city": "Boulder",
    "state": "Colorado",
    "postal_code": 80301,
    "website_url": "http://www.upslopebrewing.com",
    "longitude": -105.2183136,
    "latitude": 40.0203098
  },
  {
    "id": 361,
    "name": "Upslope Brewing Company - Lee Hill",
    "brewery_type": "regional",
    "street": "1501 Lee Hill Rd Unit 20",
    "city": "Boulder",
    "state": "Colorado",
    "postal_code": 80304,
    "website_url": "http://www.upslopebrewing.com",
    "phone": 3033961898
  },
  {
    "id": 362,
    "name": "Ursula Brewery",
    "brewery_type": "micro",
    "street": "2101 N Ursula St Unit 10",
    "city": "Aurora",
    "state": "Colorado",
    "postal_code": 80045,
    "website_url": "http://www.ursulabrewery.com",
    "phone": 7203248529
  },
  {
    "id": 363,
    "name": "Ute Pass Brewing Co",
    "brewery_type": "brewpub",
    "street": "209 E Midland Ave",
    "city": "Woodland Park",
    "state": "Colorado",
    "postal_code": 80863,
    "website_url": "http://www.utepassbrewingcompany.com",
    "phone": 7196868722,
    "longitude": -105.0513357,
    "latitude": 38.9944899
  },
  {
    "id": 364,
    "name": "Uturn BBQ",
    "brewery_type": "brewpub",
    "street": "599 Crossing Dr",
    "city": "Lafayette",
    "state": "Colorado",
    "postal_code": 80026,
    "website_url": "http://www.uturnbbq.com",
    "phone": 3039936033,
    "longitude": -105.1016163,
    "latitude": 40.0035307
  },
  {
    "id": 365,
    "name": "Vail Brewing Company",
    "brewery_type": "micro",
    "street": "41290 US Hwy 6",
    "city": "Vail",
    "state": "Colorado",
    "postal_code": 81657,
    "website_url": "http://www.vailbrewingco.com",
    "phone": 9704704351
  },
  {
    "id": 366,
    "name": "Verboten Brewing",
    "brewery_type": "micro",
    "street": "127 E 5th St",
    "city": "Loveland",
    "state": "Colorado",
    "postal_code": 80537,
    "website_url": "http://www.verbotenbrewing.com",
    "phone": 9707757371,
    "longitude": -105.0749674,
    "latitude": 40.39658612
  },
  {
    "id": 367,
    "name": "Very Nice Brewing Co",
    "brewery_type": "micro",
    "street": "20 Lakeview Drive Unit 112",
    "city": "Nederland",
    "state": "Colorado",
    "postal_code": 80466,
    "website_url": "http://www.verynicebrewing.com",
    "phone": 3032583770
  },
  {
    "id": 368,
    "name": "Veteran Brothers Brewing Company",
    "brewery_type": "brewpub",
    "street": "21 N Parish Ave",
    "city": "Johnstown",
    "state": "Colorado",
    "postal_code": 80534,
    "website_url": "https://www.facebook.com/veteranbrothersbrew",
    "phone": 9705876786,
    "longitude": -104.9061919,
    "latitude": 40.33713
  },
  {
    "id": 369,
    "name": "Vine Street Pub & Brewery",
    "brewery_type": "brewpub",
    "street": "1700 Vine St",
    "city": "Denver",
    "state": "Colorado",
    "postal_code": 80206,
    "website_url": "http://www.mountainsunpub.com",
    "phone": 3033882337,
    "longitude": -104.9627421,
    "latitude": 39.7434087
  },
  {
    "id": 370,
    "name": "Vision Quest Brewing Company",
    "brewery_type": "micro",
    "street": "2510 47th St Ste A2",
    "city": "Boulder",
    "state": "Colorado",
    "postal_code": 80301,
    "website_url": "http://www.visionquestbrewing.com",
    "phone": 3038986802
  },
  {
    "id": 371,
    "name": "Walter Brewing Company",
    "brewery_type": "micro",
    "street": "126 Oneida St",
    "city": "Pueblo",
    "state": "Colorado",
    "postal_code": 81003,
    "website_url": "http://www.waltersbeer.com",
    "phone": 7195420766,
    "longitude": -104.6103677,
    "latitude": 38.26241645
  },
  {
    "id": 372,
    "name": "WeldWerks Brewing Co.",
    "brewery_type": "micro",
    "street": "508 8th Ave",
    "city": "Greeley",
    "state": "Colorado",
    "postal_code": 80631,
    "website_url": "http://www.weldwerksbrewing.com",
    "phone": 9705185226,
    "longitude": -104.6911497,
    "latitude": 40.3998251
  },
  {
    "id": 373,
    "name": "West Flanders Brewing Co",
    "brewery_type": "brewpub",
    "street": "1125 Pearl St",
    "city": "Boulder",
    "state": "Colorado",
    "postal_code": 80302,
    "website_url": "http://www.wfbrews.com",
    "phone": 3034472739,
    "longitude": -105.260866,
    "latitude": 40.0217453
  },
  {
    "id": 374,
    "name": "Westbound & Down Brewing Company",
    "brewery_type": "brewpub",
    "street": "1617 Miner St",
    "city": "Idaho Springs",
    "state": "Colorado",
    "postal_code": 80452,
    "website_url": "http://www.westboundanddown.com",
    "phone": 7205023121,
    "longitude": -105.5155002,
    "latitude": 39.7419049
  },
  {
    "id": 375,
    "name": "WestFax Brewing Co.",
    "brewery_type": "micro",
    "street": "6733 W Colfax Ave",
    "city": "Lakewood",
    "state": "Colorado",
    "postal_code": 80214,
    "website_url": "http://www.westfaxbrewingcompany.com",
    "phone": 3032333742,
    "longitude": -105.0710839,
    "latitude": 39.7415749
  },
  {
    "id": 376,
    "name": "Westminster Brewing Co",
    "brewery_type": "micro",
    "street": "7655 W 108th Ave Ste 600",
    "city": "Westminster",
    "state": "Colorado",
    "postal_code": 80021,
    "website_url": "http://westminsterbrewingco.com",
    "phone": 3032841864
  },
  {
    "id": 377,
    "name": "Whistle Pig Brewing Company",
    "brewery_type": "micro",
    "street": "1840 Dominion Way",
    "city": "Colorado Springs",
    "state": "Colorado",
    "postal_code": 80918,
    "website_url": "http://www.whistlepigbrewing.com",
    "phone": 7195981339,
    "longitude": -104.7931723,
    "latitude": 38.92372675
  },
  {
    "id": 378,
    "name": "Wibby Brewing",
    "brewery_type": "micro",
    "street": "209 Emery St",
    "city": "Longmont",
    "state": "Colorado",
    "postal_code": 80501,
    "website_url": "http://www.wibbybrewing.com",
    "longitude": -105.1002098,
    "latitude": 40.1623965
  },
  {
    "id": 379,
    "name": "Wild Woods Brewery",
    "brewery_type": "micro",
    "street": "5460 Conestoga Ct",
    "city": "Boulder",
    "state": "Colorado",
    "postal_code": 80301,
    "website_url": "http://www.wildwoodsbrewery.com",
    "phone": 3034841465,
    "longitude": -105.2258104,
    "latitude": 40.0162153
  },
  {
    "id": 380,
    "name": "WildEdge Brewing Collective",
    "brewery_type": "brewpub",
    "street": "111 N Market St",
    "city": "Cortez",
    "state": "Colorado",
    "postal_code": 81321,
    "website_url": "http://www.wildedgebrewing.com",
    "phone": 9705659445,
    "longitude": -108.5853117,
    "latitude": 37.34990058
  },
  {
    "id": 381,
    "name": "Wiley Roots Brewing Co",
    "brewery_type": "micro",
    "street": "625 3rd St Unit D",
    "city": "Greeley",
    "state": "Colorado",
    "postal_code": 80631,
    "website_url": "http://www.wileyrootsbrewing.com",
    "phone": 9706911641
  },
  {
    "id": 382,
    "name": "Wit's End Brewing Co",
    "brewery_type": "micro",
    "street": "1330 Zuni St Ste N",
    "city": "Denver",
    "state": "Colorado",
    "postal_code": 80204,
    "website_url": "http://www.witsendbrewing.com",
    "phone": 3033599119
  },
  {
    "id": 383,
    "name": "Wonderland Brewing Co.",
    "brewery_type": "micro",
    "street": "5450 W 120th Ave",
    "city": "Broomfield",
    "state": "Colorado",
    "postal_code": 80020,
    "website_url": "http://www.wonderlandbrewing.com",
    "phone": 3039530400,
    "longitude": -105.0560819,
    "latitude": 39.91349895
  },
  {
    "id": 384,
    "name": "Woods Boss Brewing Company",
    "brewery_type": "micro",
    "street": "2210 California St",
    "city": "Denver",
    "state": "Colorado",
    "postal_code": 80205,
    "website_url": "http://www.woodsbossbrew.com",
    "phone": 9149609225,
    "longitude": -104.9845374,
    "latitude": 39.7509153
  },
  {
    "id": 385,
    "name": "Wynkoop Brewing Co",
    "brewery_type": "brewpub",
    "street": "1634 18th St",
    "city": "Denver",
    "state": "Colorado",
    "postal_code": 80202,
    "website_url": "http://www.wynkoop.com",
    "phone": 3032972700,
    "longitude": -104.9984831,
    "latitude": 39.7535446
  },
  {
    "id": 386,
    "name": "Yampa Valley Brewing Company",
    "brewery_type": "micro",
    "street": "106 E Jefferson Ave Unit B",
    "city": "Hayden",
    "state": "Colorado",
    "postal_code": 81639,
    "website_url": "http://www.yampavalleybrew.com",
    "phone": 9702768014
  },
  {
    "id": 387,
    "name": "Zephyr Brewing Co",
    "brewery_type": "micro",
    "street": "1609 E 58th Ave Ste G",
    "city": "Denver",
    "state": "Colorado",
    "postal_code": 80216,
    "website_url": "http://www.zephyrbrewingco.com",
    "phone": 7202959374
  },
  {
    "id": 388,
    "name": "Zuni Street Brewing Company",
    "brewery_type": "micro",
    "street": "2355 W 29th Ave",
    "city": "Denver",
    "state": "Colorado",
    "postal_code": 80211,
    "website_url": "http://www.zunistreetbrewing.com",
    "phone": 3038626525,
    "longitude": -105.015409,
    "latitude": 39.7585929
  },
  {
    "id": 389,
    "name": "Zwei Brewing Co",
    "brewery_type": "micro",
    "street": "4612 S Mason St Ste 120",
    "city": "Fort Collins",
    "state": "Colorado",
    "postal_code": 80525,
    "website_url": "http://www.zweibruderbrewing.com",
    "phone": 9702232482
  }
]
